관리번호,사업장명,업태구분명,지번주소,도로명주소,좌표정보(X),좌표정보(Y),lon,lat,정제주소
PHMA220193140033021200001,서울스마트요양병원,요양병원(일반요양병원),서울특별시 양천구 신정동 1268 복합메디컬타운,"서울특별시 양천구 중앙로 181, 복합메디컬타운 3~8층 (신정동)",187181.28483799,445624.366466149,126.855685447508,37.5128194279739,"서울특별시 양천구 중앙로 181, 복합메디컬타운 38층 (신정동)"
PHMA220063140033021200001,목동힘찬병원,병원,서울특별시 양천구 목동 404번지 3호,"서울특별시 양천구 신목로 120 (목동, 힘찬병원)",189047.941727937,446975.068504489,126.876846570165,37.5249809740677,"서울특별시 양천구 신목로 120 (목동, 힘찬병원)"
PHMA220163090033021200001,서울사랑요양병원,요양병원(일반요양병원),서울특별시 도봉구 쌍문동 503-8 2~5층,"서울특별시 도봉구 삼양로 574, 2~5층 (쌍문동)",201098.761383515,461327.62658561,127.01317122623,37.6543471286134,"서울특별시 도봉구 삼양로 574, 25층 (쌍문동)"
PHMA220083230034021201554,뉴스타트병원,병원,서울특별시 송파구 가락동 159번지 7호 뉴스타트병원,"서울특별시 송파구 송이로 76, 뉴스타트병원 (가락동)",210493.764941542,444103.26092079,127.119513008234,37.4990977042848,"서울특별시 송파구 송이로 76, 뉴스타트병원 (가락동)"
PHMA220133220033021200003,기쁨정원치과병원,치과병원,"서울특별시 강남구 수서동 713번지 수서현대벤처빌 303호,315호","서울특별시 강남구 밤고개로1길 10, 315호 (수서동, 수서현대벤쳐빌)",208937.760652081,442873.588039887,127.101844450006,37.4880244867416,"서울특별시 강남구 밤고개로1길 10, 315호 (수서동, 수서현대벤쳐빌)"
PHMA220213160034021200002,서울브이아이피(VIP)요양병원,요양병원(일반요양병원),"서울특별시 구로구 개봉동 143-1 오류빌딩 지하1층, 1층,2층,3층,4층,5층,6층","서울특별시 구로구 경인로 297, 오류빌딩 (개봉동)",186968.262921097,443991.411315809,126.853533832351,37.4979712883151,"서울특별시 구로구 경인로 297, 오류빌딩 (개봉동)"
PHMA220193220033021200002,힘찬큐한방병원,한방병원,서울특별시 강남구 논현동 235-11 센트럴타워,"서울특별시 강남구 봉은사로 213, 센트럴타워 5~7층 (논현동)",203057.829697832,445092.183424792,127.035366129428,37.5080500239766,"서울특별시 강남구 봉은사로 213, 센트럴타워 57층 (논현동)"
PHMA220223050034021200001,엔플러스병원,병원,서울특별시 동대문구 장안동 311-5 장안동의료시설,"서울특별시 동대문구 장한로32길 7, 장안동의료시설 (장안동)",206344.162717169,452578.5598439,127.072583233437,37.5754686901664,"서울특별시 동대문구 장한로32길 7, 장안동의료시설 (장안동)"
PHMA220183080033021200001,강북휴요양병원,요양병원(일반요양병원),서울특별시 강북구 미아동 317번지 1호 서울컨벤션웨딩홀,"서울특별시 강북구 도봉로 161, 서울컨벤션웨딩홀 (미아동)",202314.863753202,457867.658598331,127.027006795941,37.6231640287055,"서울특별시 강북구 도봉로 161, 서울컨벤션웨딩홀 (미아동)"
PHMA220223220033021200002,강남더드림병원,병원,,"서울특별시 강남구 선릉로 404, 더드림병원 (대치동)",204432.710770012,444309.006550907,127.050967336445,37.5009902618151,"서울특별시 강남구 선릉로 404, 더드림병원 (대치동)"
PHMA220103240033021200003,동부센트럴요양병원,요양병원(일반요양병원),,"서울특별시 강동구 올림픽로98길 8 (암사동, 동부센트럴요양병원)",,,127.128438785292,37.5511333485262,"서울특별시 강동구 올림픽로98길 8 (암사동, 동부센트럴요양병원)"
PHMA220183220033021200001,리봄한방병원,한방병원,서울특별시 강남구 논현동 241-16,"서울특별시 강남구 학동로50길 7, 2~4,5(일부)층 (논현동)",203472.006113539,446003.98577584,127.040070113365,37.5162428849479,"서울특별시 강남구 학동로50길 7, 24,5(일부)층 (논현동)"
PHMA220223230034021200004,리워크병원,병원,서울특별시 송파구 가락동 48-3 지하2층~지상7층,"서울특별시 송파구 송이로 81, 지하2~지상7층 (가락동)",210574.037898234,444069.184552292,127.120406004335,37.4987777513439,"서울특별시 송파구 송이로 81, 지하2지상7층 (가락동)"
PHMA219933140033021200002,홍익병원,종합병원,서울특별시 양천구 신정동 899번지 1호 홍익병원본관,"서울특별시 양천구 목동로 225, 홍익병원본관 (신정동)",187879.054915494,447370.031967944,126.863640511323,37.5284817220954,"서울특별시 양천구 목동로 225, 홍익병원본관 (신정동)"
PHMA220203060034021200001,경동한방병원,한방병원,,"서울특별시 중랑구 망우로 400, 2층~3층(201호~204호,301호~304호) (망우동)",208463.143596093,455162.320713803,127.096589961709,37.5987572807336,"서울특별시 중랑구 망우로 400, 2층3층(201호204호,301호304호) (망우동)"
PHMA220223090033021200003,자향한방병원,한방병원,서울특별시 도봉구 창동 553-2 3~7층,"서울특별시 도봉구 덕릉로 215, 3~7층 (창동)",203151.226589443,459468.169735429,127.036585306014,37.6375134360639,"서울특별시 도봉구 덕릉로 215, 37층 (창동)"
PHMA220203080033021200002,서울유병원,병원,서울특별시 강북구 미아동 62-38 서울유병원BK빌딩,"서울특별시 강북구 도봉로 77, 지하2층~지하1층, 3층~8층층 (미아동)",202541.070832521,457081.260634815,127.029551791451,37.6160730052361,"서울특별시 강북구 도봉로 77, 지하2층지하1층, 3층8층층 (미아동)"
PHMA220123050034021200002,왕십리휴요양병원,요양병원(일반요양병원),서울특별시 동대문구 용두동 129번지 36호,"서울특별시 동대문구 무학로 88 (용두동, 지하2~지상8층)",202670.049271259,452196.571007272,127.031273373243,37.5721224568918,"서울특별시 동대문구 무학로 88 (용두동, 지하2지상8층)"
PHMA220043210034021200001,가야치과병원,치과병원,서울특별시 서초구 방배동 852번지 20호,"서울특별시 서초구 방배로 177, 4~6층 (방배동)",199245.439853629,443009.301109201,126.99228929275,37.4892992684081,"서울특별시 서초구 방배로 177, 46층 (방배동)"
PHMA220203080033021200001,강북으뜸병원,병원,"서울특별시 강북구 미아동 304번지 3호 지하1층, 2층~5층","서울특별시 강북구 도봉로 187, 지하1층, 2층~5층 (미아동)",202240.855124105,458118.709572688,127.026184524499,37.6254205559935,"서울특별시 강북구 도봉로 187, 지하1층, 2층5층 (미아동)"
PHMA220013210034021200002,길인의료재단 기린한방병원,한방병원,서울특별시 서초구 잠원동 38번지 25호 기린한방병원,"서울특별시 서초구 신반포로49길 3, 기린한방병원 (잠원동)",201705.524083255,445429.573099822,127.020072750484,37.5110625178086,"서울특별시 서초구 신반포로49길 3, 기린한방병원 (잠원동)"
PHMA220193040033021200001,편안한요양병원,요양병원(일반요양병원),서울특별시 광진구 자양동 685번지,"서울특별시 광진구 자양로 38, 편안한요양병원 (자양동)",207574.350933065,447709.275315842,127.086454798289,37.5316187818149,"서울특별시 광진구 자양로 38, 편안한요양병원 (자양동)"
PHMA220193240033021200001,포레스트한방병원,한방병원,"서울특별시 강동구 성내동 452 지하3, 지하1 일부, 1~5층","서울특별시 강동구 강동대로 143-52, 지하3, 지하1 일부, 1~5층 (성내동)",210587.488645319,447299.229870215,127.120450838072,37.527877147577,"서울특별시 강동구 강동대로 143-52, 지하3, 지하1 일부, 15층 (성내동)"
PHMA220223100034021200001,모아한방병원,한방병원,,"서울특별시 노원구 동일로 987, 태릉마이크로병원건물 2,5,6,7층 (공릉동)",,,127.074941145603,37.6182542034567,"서울특별시 노원구 동일로 987, 태릉마이크로병원건물 2,5,6,7층 (공릉동)"
PHMA220083080033021200001,민병원,병원,서울특별시 강북구 미아동 317번지 3호 서울민병원,"서울특별시 강북구 도봉로 155, 서울민병원 (미아동)",202337.148434207,457806.819119783,127.027280383769,37.6226164357907,"서울특별시 강북구 도봉로 155, 서울민병원 (미아동)"
PHMA220013210034021200001,필치과병원,치과병원,,"서울특별시 서초구 방배로 245, 3층 (방배동, 현대클리닉빌딩)",,,126.988863824402,37.4947663077227,"서울특별시 서초구 방배로 245, 3층 (방배동, 현대클리닉빌딩)"
PHMA220223230034021200005,연세우리병원,병원,서울특별시 송파구 잠실동 250-14 2~9층,"서울특별시 송파구 백제고분로 185, 2~9층 (잠실동)",207649.560634469,444734.861106734,127.087307841535,37.504811961495,"서울특별시 송파구 백제고분로 185, 29층 (잠실동)"
PHMA220193230034021200004,송파그랜드요양병원,요양병원(일반요양병원),서울특별시 송파구 마천동 32번지 윤진프라자타워,"서울특별시 송파구 마천로 238, 윤진프라자타워 (마천동)",212643.860107402,444170.320122251,127.143773162373,37.4996415468676,"서울특별시 송파구 마천로 238, 윤진프라자타워 (마천동)"
PHMA220123080033021200001,강북우리들병원,병원,서울특별시 강북구 수유동 188번지 1호 광산타워,"서울특별시 강북구 한천로 1083, 수유동 (수유동, 광산타워)",201930.770048587,460020.981733386,127.022634105373,37.6425448823211,"서울특별시 강북구 한천로 1083, 수유동 (수유동, 광산타워)"
PHMA220173150037021200002,면력한방병원,한방병원,서울특별시 강서구 마곡동 795-7 열린프라자,"서울특별시 강서구 마곡중앙6로 93, 열린프라자 6,7,10층 602,603,604,605호 (마곡동)",185590.150482304,450885.185701751,126.837697932979,37.5601356822454,"서울특별시 강서구 마곡중앙6로 93, 열린프라자 6,7,10층 602,603,604,605호 (마곡동)"
PHMA220223150037021200003,강서365한방병원,한방병원,서울특별시 강서구 등촌동 726 가양역 두산위브,"서울특별시 강서구 공항대로45길 15, 7~11층 (등촌동, 가양역 두산위브)",187072.406618503,450439.832960781,126.854556711293,37.5562925590397,"서울특별시 강서구 공항대로45길 15, 711층 (등촌동, 가양역 두산위브)"
PHMA220223240033021200001,경희디에스한방병원,한방병원,"서울특별시 강동구 천호동 401-5 5층일부,6~7층","서울특별시 강동구 구천면로 233, 5층일부,6~7층 (천호동)",211411.31987595,448830.948477309,127.130124238718,37.5416637215789,"서울특별시 강동구 구천면로 233, 5층일부,67층 (천호동)"
PHMA220223130033021200001,서울연세병원,병원,"서울특별시 마포구 용강동 473-1 대현빌딩 지하층 , 지상2층~지상6층","서울특별시 마포구 토정로 271, 대현빌딩 지하1층,지상2~6층 (용강동)",194654.585202529,448914.521960764,126.940310619041,37.5424624834344,"서울특별시 마포구 토정로 271, 대현빌딩 지하1층,지상26층 (용강동)"
PHMA220223120033021200001,신촌힐링요양병원,요양병원(일반요양병원),서울특별시 서대문구 홍은동 275-59 미도빌딩,"서울특별시 서대문구 모래내로 330, 미도빌딩 (홍은동)",194093.323180004,453052.898302227,126.933744105762,37.5797577190735,"서울특별시 서대문구 모래내로 330, 미도빌딩 (홍은동)"
PHMA220043240033021200003,의료법인일맥의료재단 강동인애가한방병원,한방병원,서울특별시 강동구 성내동 551번지 3호 인애가한방병원,"서울특별시 강동구 성내로6길 15, 인애가한방병원 (성내동)",210808.253116091,447406.530930065,127.122992484929,37.5288611244035,"서울특별시 강동구 성내로6길 15, 인애가한방병원 (성내동)"
PHMA220183150037021200002,이화여자대학교의과대학부속서울병원,종합병원,서울특별시 강서구 마곡동 808 이화의대부속서울병원,"서울특별시 강서구 공항대로 260, 이화의대부속서울병원 (마곡동)",185455.170806691,450604.239360205,126.836266829117,37.5572628621214,"서울특별시 강서구 공항대로 260, 이화의대부속서울병원 (마곡동)"
PHMA219853100034021200001,한국원자력의학원원자력병원,종합병원,,"서울특별시 노원구 노원로 75, 한국원자력의학원 (공릉동)",,,127.083017711933,37.6286068147245,"서울특별시 노원구 노원로 75, 한국원자력의학원 (공릉동)"
PHMA220163240033021200001,올바른서울병원,병원,서울특별시 강동구 천호동 51번지 3호 명품빌딩,"서울특별시 강동구 양재대로 1525, 명품빌딩 (천호동)",212416.582100894,448882.414137392,127.141295131037,37.542099851435,"서울특별시 강동구 양재대로 1525, 명품빌딩 (천호동)"
PHMA220143210034021200001,장덕한방병원,한방병원,서울특별시 서초구 서초동 1603-1 블루핀타워,"서울특별시 서초구 서초중앙로 42, 블루핀타워 지하2층,지하1층,1층,2층,3층 동 (서초동)",201353.74049169,442618.447987766,127.016257753357,37.4858656509843,"서울특별시 서초구 서초중앙로 42, 블루핀타워 지하2층,지하1층,1층,2층,3층 동 (서초동)"
PHMA220183240033021200002,강동우리들요양병원,요양병원(일반요양병원),서울특별시 강동구 천호동 421번지 4호 행복타워빌딩,"서울특별시 강동구 구천면로 202, 행복타워빌딩 B2,2,3,4,6층 (천호동)",211174.771171465,448678.909948061,127.127094757809,37.5401008139262,"서울특별시 강동구 구천면로 202, 행복타워빌딩 B2,2,3,4,6층 (천호동)"
PHMA220173230034021200002,민트병원,병원,서울특별시 송파구 문정동 640-3 한스빌딩,"서울특별시 송파구 정의로8길 7, 한스빌딩 1~4층 (문정동)",210190,442675,127.115920525549,37.4862139140168,"서울특별시 송파구 정의로8길 7, 한스빌딩 14층 (문정동)"
PHMA220223220033021200003,립샘한방병원,한방병원,서울특별시 강남구 역삼동 825 미진프라자,"서울특별시 강남구 강남대로 390, 미진프라자 3층 (역삼동)",202462.604763481,443960.186302868,127.028578846319,37.4978399531903,"서울특별시 강남구 강남대로 390, 미진프라자 3층 (역삼동)"
PHMA220223210034021200001,자이비뇨의학과병원,병원,서울특별시 서초구 서초동 1302-2 대지스포츠프라자,"서울특별시 서초구 서운로 220, 대지스포츠프라자 4층 (서초동)",201856.625065785,444502.636699224,127.021761944037,37.5027112533189,"서울특별시 서초구 서운로 220, 대지스포츠프라자 4층 (서초동)"
PHMA220223200033021200001,바를정한방병원,한방병원,,"서울특별시 관악구 남부순환로 1485, 삼남빌딩 1층, 7층, 8층 (신림동)",,,126.915650135223,37.4823520999904,"서울특별시 관악구 남부순환로 1485, 삼남빌딩 1층, 7층, 8층 (신림동)"
PHMA220223230034021200002,강남푸른숲한방병원,한방병원,서울특별시 송파구 삼전동 33-3 지하1층~6층,"서울특별시 송파구 삼전로 42, 지하1~6층 (삼전동)",207625.449032462,444492.597835876,127.086978587103,37.5026417727575,"서울특별시 송파구 삼전로 42, 지하16층 (삼전동)"
PHMA219823180034021200001,성애의료재단 성애병원,종합병원,,"서울특별시 영등포구 여의대방로53길 22 (신길동, 성애병원)",,,126.922369145801,37.5120505408562,"서울특별시 영등포구 여의대방로53길 22 (신길동, 성애병원)"
PHMA220193230034021200003,포레메디한방병원,한방병원,서울특별시 송파구 방이동 109번지 3호,"서울특별시 송파구 오금로 129, 지하1층~6층 (방이동)",209623.287948462,445505.258585544,127.109593795032,37.5116944510056,"서울특별시 송파구 오금로 129, 지하1층6층 (방이동)"
PHMA220223230034021200003,바른걸음병원,병원,서울특별시 송파구 삼전동 72-2 SH타워 2~8층,"서울특별시 송파구 백제고분로 252, SH타워 2~8층 (삼전동)",208268.922770088,444467.786773283,127.094296838722,37.5023455834177,"서울특별시 송파구 백제고분로 252, SH타워 28층 (삼전동)"
PHMA220193200033021200002,치유본한방병원,한방병원,서울특별시 관악구 신림동 1638번지 1호 삼모더프라임타워,"서울특별시 관악구 신원로 35, 삼모더프라임타워 6층 (신림동)",193643.274303943,442230.03574985,126.929023376476,37.4823122359729,"서울특별시 관악구 신원로 35, 삼모더프라임타워 6층 (신림동)"
PHMA220223160034021200001,포그니병원,병원,,"서울특별시 구로구 경인로 393-7, 일이삼전자타운 2동 6,7층 (고척동)",,,126.86304887653,37.4974421887122,"서울특별시 구로구 경인로 393-7, 일이삼전자타운 2동 6,7층 (고척동)"
PHMA220223070034021200002,플러스요양병원,요양병원(일반요양병원),서울특별시 성북구 정릉동 674-3 그린존,"서울특별시 성북구 솔샘로1길 19, 그린존 1층~6층 (정릉동)",200279.459422208,456219.797491714,127.003908826541,37.6082799327366,"서울특별시 성북구 솔샘로1길 19, 그린존 1층6층 (정릉동)"
PHMA220163080033021200001,북서울요양병원,요양병원(일반요양병원),서울특별시 강북구 번동 461-68 북서울요양병원,"서울특별시 강북구 한천로 1002, 북서울요양병원 (번동)",202582.466293771,459530.486138019,127.030017007593,37.6381346270653,"서울특별시 강북구 한천로 1002, 북서울요양병원 (번동)"
PHMA220123150037021200003,서울고든병원,병원,서울특별시 강서구 등촌동 632-6 파인블루빌딩,"서울특별시 강서구 양천로 600, 파인블루빌딩 지하1층,2,7,8층 ,9,10호 (등촌동)",187974.228864018,450369.165403996,126.864673727749,37.5554767520191,"서울특별시 강서구 양천로 600, 파인블루빌딩 지하1층,2,7,8층 ,9,10호 (등촌동)"
PHMA220223220033021200005,강남포레메디한방병원,한방병원,서울특별시 강남구 논현동 54-4,"서울특별시 강남구 학동로 117, B1~9F층 (논현동)",202019.609786891,445542.15986245,127.023648360433,37.5120753958504,"서울특별시 강남구 학동로 117, B19F층 (논현동)"
PHMA220113240033021200001,아이엠치과병원,치과병원,서울특별시 강동구 천호동 425-5 대우 한강 베네시티,"서울특별시 강동구 올림픽로 664, 4층 (천호동, 대우 한강 베네시티)",210970.75707265,448713.31669728,127.124975762766,37.540555377209,"서울특별시 강동구 올림픽로 664, 4층 (천호동, 대우 한강 베네시티)"
PHMA220103060034021200002,로하스동서울요양병원,요양병원(일반요양병원),서울특별시 중랑구 신내동 666번지 신아타운,"서울특별시 중랑구 봉화산로 194, 신아타운 4,5층 (신내동)",208295.099818379,456014.999180519,127.094707041869,37.6064526315197,"서울특별시 중랑구 봉화산로 194, 신아타운 4,5층 (신내동)"
PHMA220153150037021200001,강서수한방병원,한방병원,서울특별시 강서구 화곡동 938번지 19호 백제빌딩,"서울특별시 강서구 곰달래로 54, 백제빌딩 1~7층 (화곡동)",185684.894440424,447532.217283307,126.838817200469,37.5299550335758,"서울특별시 강서구 곰달래로 54, 백제빌딩 17층 (화곡동)"
PHMA220103080033021200001,서울현대병원,병원,서울특별시 강북구 번동 463번지 44호,"서울특별시 강북구 도봉로 374 (번동, 서울현대병원)",202451.867599327,459765.521965024,127.028504374531,37.6402559204261,"서울특별시 강북구 도봉로 374 (번동, 서울현대병원)"
PHMA220073080033021200001,효성요양병원,요양병원(일반요양병원),서울특별시 강북구 미아동 734번지 108호,"서울특별시 강북구 삼양로 204 (미아동, 효성요양병원)",201738.719381809,457742.089570552,127.020454038954,37.6220309133259,"서울특별시 강북구 삼양로 204 (미아동, 효성요양병원)"
PHMA220163240033021200002,청병원,병원,서울특별시 강동구 성내동 553번지 17호 G.M.F.빌딩,"서울특별시 강동구 올림픽로 546, G.M.F.빌딩 (성내동)",210640.975540871,447566.083944129,127.121022361639,37.530247187452,"서울특별시 강동구 올림픽로 546, G.M.F.빌딩 (성내동)"
PHMA220073240033021200002,강동성모요양병원,요양병원(일반요양병원),서울특별시 강동구 천호동 362번지 3호 로뎀빌딩,"서울특별시 강동구 올림픽로80길 31, 로뎀빌딩 (천호동)",211171.467512363,449037.295175834,127.127182630653,37.5434717175686,"서울특별시 강동구 올림픽로80길 31, 로뎀빌딩 (천호동)"
PHMA220043140033021200001,의료법인해인의료재단 동신한방병원,한방병원,"서울특별시 양천구 목1동 404번지 256호 지하2층~지상6층, 8층~9층","서울특별시 양천구 오목로 351, B2~6,8~9층 (목동)",189036.361978427,446938.511587968,126.876792551092,37.5246031276762,"서울특별시 양천구 오목로 351, B26,89층 (목동)"
PHMA219743070034021200001,학교법인 고려중앙학원 고려대학교의과대학부속병원(안암병원),종합병원,서울특별시 성북구 안암동5가 126번지 1호 고려대병원,"서울특별시 성북구 고려대로 73, 고려대병원 (안암동5가)",202313.850759843,453871.264665299,127.026248862202,37.5873771473625,"서울특별시 성북구 고려대로 73, 고려대병원 (안암동5가)"
PHMA220093220033021200005,선한목자병원,병원,"서울특별시 강남구 역삼동 642번지 7호 2층,3층일부","서울특별시 강남구 논현로 507 (역삼동, 성지하이츠3차빌딩 2층,3층일부)",203118.391406425,444369.126280986,127.036157208818,37.5015784938059,"서울특별시 강남구 논현로 507 (역삼동, 성지하이츠3차빌딩 2층,3층일부)"
PHMA220023060034021200020,장스여성병원,병원,서울특별시 중랑구 망우동 488-8 장스여성병원 비동,"서울특별시 중랑구 용마산로117길 49, 장스여성병원 비동 (7층 일부제외)동 (망우동)",208547.560589346,455271.790327778,127.097561434831,37.5997087386745,"서울특별시 중랑구 용마산로117길 49, 장스여성병원 비동 (7층 일부제외)동 (망우동)"
PHMA220013140033021200001,메디힐병원,병원,,"서울특별시 양천구 남부순환로 331 (신월동, 메디힐병원)",184727.430998613,448317.177185441,126.827841386792,37.5372613394638,"서울특별시 양천구 남부순환로 331 (신월동, 메디힐병원)"
PHMA220233060034021200001,연세산돌병원,병원,서울특별시 중랑구 망우동 460-1 연세산돌병원,"서울특별시 중랑구 봉우재로 234, 연세산돌병원 지하1층~7층 (망우동)",208664.15211223,454762.013502246,127.098876946116,37.5951721459585,"서울특별시 중랑구 봉우재로 234, 연세산돌병원 지하1층7층 (망우동)"
PHMA220213120033021200002,활명한방병원,한방병원,,"서울특별시 서대문구 수색로 102, 2~4층 (북가좌동, DMC요진아파트)",,,126.908300545442,37.5728660207973,"서울특별시 서대문구 수색로 102, 24층 (북가좌동, DMC요진아파트)"
PHMA220233240033021200001,위드힘병원,병원,서울특별시 강동구 길동 412-10 SC MEDI TOWER,"서울특별시 강동구 양재대로 1461, SC MEDI TOWER 2,4,5층 (길동)",212221.342539571,448245.019790445,127.139096030275,37.536390125858,"서울특별시 강동구 양재대로 1461, SC MEDI TOWER 2,4,5층 (길동)"
PHMA220083060034021200012,한걸음요양병원,요양병원(일반요양병원),서울특별시 중랑구 상봉동 101번지 이지팰리스,"서울특별시 중랑구 망우로 316, 이지팰리스 5~7층 503-2,504,505,601~605,701~705호 (상봉동)",207660.883688474,454911.110252938,127.087565034141,37.5965223858128,"서울특별시 중랑구 망우로 316, 이지팰리스 57층 503-2,504,505,601605,701705호 (상봉동)"
PHMA219943220033021200003,삼성서울병원,종합병원,서울특별시 강남구 일원동 50번지,"서울특별시 강남구 일원로 81 (일원동, 삼성의료원)",207534.49462606,442943.860447203,127.089590154403,37.49034450782,"서울특별시 강남구 일원로 81 (일원동, 삼성의료원)"
PHMA219893230034021201574,재단법인아산사회복지재단 서울아산병원,종합병원,서울특별시 송파구 풍납동 388번지 1호 서울아산병원,"서울특별시 송파구 올림픽로43길 88, 서울아산병원 (풍납동)",209607.590372037,447120.577229325,127.109380463701,37.525171129004,"서울특별시 송파구 올림픽로43길 88, 서울아산병원 (풍납동)"
PHMA219943010033021200001,서울송도병원,병원,,"서울특별시 중구 다산로 78 (신당동, 송도병원)",200662.510848873,449877.44410054,127.008381705394,37.5511665956999,"서울특별시 중구 다산로 78 (신당동, 송도병원)"
PHMA219933180034021200002,씨엠병원,종합병원,,"서울특별시 영등포구 영등포로36길 13 (영등포동4가, 충무병원)",191458.813597697,446295.815425865,126.903875945195,37.5188159086795,"서울특별시 영등포구 영등포로36길 13 (영등포동4가, 충무병원)"
PHMA219833060034021200004,의료법인풍산의료재단동부제일병원,종합병원,서울특별시 중랑구 망우동 128-29 동부제일병원,"서울특별시 중랑구 망우로 511, 동부제일병원 지하1~6층 (망우동)",209579.612349583,455387.99689292,127.109547154587,37.6008839257705,"서울특별시 중랑구 망우로 511, 동부제일병원 지하16층 (망우동)"
PHMA220113110032021200001,최원호병원,병원,,"서울특별시 은평구 서오릉로 45, 최원호병원 (녹번동)",,,126.923855760856,37.604769594378,"서울특별시 은평구 서오릉로 45, 최원호병원 (녹번동)"
PHMA220223000034021200001,치휴한방병원,한방병원,서울특별시 종로구 연건동 39 대학로빌딩,"서울특별시 종로구 대학로 89, 대학로빌딩 지하1, 지상2~6층 (연건동)",200089.004472863,452986.206777353,127.001809991044,37.5792304768008,"서울특별시 종로구 대학로 89, 대학로빌딩 지하1, 지상26층 (연건동)"
PHMA220223070034021200001,한마음한방병원,한방병원,"서울특별시 성북구 종암동 3-1342 청한빌딩 4,5층","서울특별시 성북구 종암로 129, 청한빌딩 4,5층 (종암동)",202819.871767584,455458.024657239,127.032727558227,37.6014264034926,"서울특별시 성북구 종암로 129, 청한빌딩 4,5층 (종암동)"
PHMA219853180034021200001,한림대학교 강남성심병원,종합병원,,"서울특별시 영등포구 신길로 1 (대림동, 강남성심병원)",,,126.90877588456,37.4932489151953,"서울특별시 영등포구 신길로 1 (대림동, 강남성심병원)"
PHMA220223150037021200002,숨이편한병원,병원,서울특별시 강서구 내발산동 668,"서울특별시 강서구 강서로 323, 4~8층 (내발산동)",185487.641769266,450280.85856253,126.836553620481,37.5546704615225,"서울특별시 강서구 강서로 323, 48층 (내발산동)"
PHMA220103180034021200002,의료법인 춘혜의료재단 명지춘혜재활병원,병원,,"서울특별시 영등포구 대림로 223 (대림동, 명지춘혜병원)",,,126.897027181092,37.5006467013969,"서울특별시 영등포구 대림로 223 (대림동, 명지춘혜병원)"
PHMA219773000034021200001,서울적십자병원,종합병원,,"서울특별시 종로구 새문안로 9, 적십자병원 (평동)",197013.490218964,451678.787536538,126.967202493985,37.5667630123693,"서울특별시 종로구 새문안로 9, 적십자병원 (평동)"
PHMA220213000034021200001,아미나요양병원,요양병원(일반요양병원),"서울특별시 종로구 신문로2가 1-158 썬타워빌딩 지하1층, 지상2,3,4,5,6,7층","서울특별시 종로구 경희궁길 26, 썬타워빌딩 지하1층, 지상2,3,4,5,6,7층 (신문로2가)",197369.925430517,452219.605210118,126.970991105824,37.572273501222,"서울특별시 종로구 경희궁길 26, 썬타워빌딩 지하1층, 지상2,3,4,5,6,7층 (신문로2가)"
PHMA220213000034021200002,도반한방병원,한방병원,,"서울특별시 종로구 새문안로5가길 33, 포레스트빌딩 2~12층,14층일부 (내자동)",,,126.972903532517,37.5749585598862,"서울특별시 종로구 새문안로5가길 33, 포레스트빌딩 212층,14층일부 (내자동)"
PHMA220183000034021200001,서울숭인병원,병원,서울특별시 종로구 숭인동 200번지 26호 진형빌딩,"서울특별시 종로구 종로 386, 6.7.8.9층 (숭인동)",201728.010848506,452416.82550417,127.020352393515,37.5740805443826,"서울특별시 종로구 종로 386, 6.7.8.9층 (숭인동)"
PHMA220123000034021200001,로이병원,병원,서울특별시 종로구 평창동 158-1 글로리아타운,"서울특별시 종로구 평창문화로 75, 글로리아타운 2층일부,3,5층 (평창동)",197212.364862058,456055.205802855,126.96900620111,37.606862635259,"서울특별시 종로구 평창문화로 75, 글로리아타운 2층일부,3,5층 (평창동)"
PHMA220063010033021200002,더블유치과병원,치과병원,,"서울특별시 중구 장충단로 263, 14층 (을지로6가, 밀리오레상가건물)",200697.821203755,451764.474808456,127.008472686741,37.5681156942942,"서울특별시 중구 장충단로 263, 14층 (을지로6가, 밀리오레상가건물)"
PHMA220063010033021200003,유치과병원,치과병원,서울특별시 중구 신당동 336번지 3호,"서울특별시 중구 다산로 175, 3층 (신당동, 명덕빌딩)",201064.963697104,450779.720971036,127.012891334533,37.5592938191734,"서울특별시 중구 다산로 175, 3층 (신당동, 명덕빌딩)"
PHMA220103010033021200003,라임나무치과병원,치과병원,서울특별시 중구 명동1가 53번지 1호 7층,"서울특별시 중구 명동길 43, 7층 (명동1가, 신한은행)",198582.339705178,451302.602871612,126.9847370548,37.5639981807195,"서울특별시 중구 명동길 43, 7층 (명동1가, 신한은행)"
PHMA220113010033021200002,연세스위트치과병원,치과병원,,"서울특별시 중구 퇴계로 447, 211~213호 (황학동, 황학아크로타워)",201836.958204434,451519.359477588,127.021721835241,37.5660419798503,"서울특별시 중구 퇴계로 447, 211213호 (황학동, 황학아크로타워)"
PHMA220003010033021200001,한누리치과병원,치과병원,서울특별시 중구 충무로1가 25번지 5호 고려대연각센터빌딩 3층 306호,"서울특별시 중구 퇴계로 97, 3층 306호 (충무로1가, 고려대연각센터빌딩)",198388.365585519,450963.241815173,126.982545572081,37.5609575542822,"서울특별시 중구 퇴계로 97, 3층 306호 (충무로1가, 고려대연각센터빌딩)"
PHMA220163010033021200002,참바로병원,병원,서울특별시 중구 흥인동 86번지 리마크빌 2~3층,"서울특별시 중구 다산로 258, 2,3층 (흥인동, 리마크빌)",201400.824438273,451528.012185815,127.016623843671,37.5657948536437,"서울특별시 중구 다산로 258, 2,3층 (흥인동, 리마크빌)"
PHMA220163010033021200001,광화문자생한방병원,한방병원,,"서울특별시 중구 통일로 92, 케이지타워 1,2,8층 (순화동)",,,126.969222436022,37.5635955637684,"서울특별시 중구 통일로 92, 케이지타워 1,2,8층 (순화동)"
PHMA219823020033021200001,소화병원(의료법인 소화병원),병원,서울특별시 용산구 서계동 224번지 32호,"서울특별시 용산구 청파로 383 (서계동, 소화아동병원)",197160.917789776,450168.3235982,126.968672506577,37.5537686940882,"서울특별시 용산구 청파로 383 (서계동, 소화아동병원)"
PHMA220203100034021200002,서울미르한방병원,한방병원,,"서울특별시 노원구 동일로197길 11, 공삼빌딩 2,3,4층 (공릉동)",,,127.070641890379,37.6285094576574,"서울특별시 노원구 동일로197길 11, 공삼빌딩 2,3,4층 (공릉동)"
PHMA220163030033021200001,시온요양병원,요양병원(일반요양병원),서울특별시 성동구 용답동 235번지 8호,"서울특별시 성동구 자동차시장1길 85, 지하1,지상3~5층 (용답동, JS빌딩)",205861.778324251,450912.302558818,127.067148620046,37.5605377248611,"서울특별시 성동구 자동차시장1길 85, 지하1,지상35층 (용답동, JS빌딩)"
PHMA220173030033021200002,굿모닝요양병원,요양병원(일반요양병원),서울특별시 성동구 용답동 235-3 2~7층,"서울특별시 성동구 천호대로 436, 2~7층 (용답동)",205869.831879948,450941.189726548,127.067209310104,37.5606915805644,"서울특별시 성동구 천호대로 436, 27층 (용답동)"
PHMA220183040033021200001,서울프라임병원,병원,"서울특별시 광진구 자양동 24-9 B1~2, 2~7층","서울특별시 광진구 동일로 92-1, B1~2, 2~7층 (자양동)",205558.67706739,448728.056778367,127.063590210516,37.5408266646495,"서울특별시 광진구 동일로 92-1, B12, 27층 (자양동)"
PHMA220213040033021200001,경희생생한방병원,한방병원,서울특별시 광진구 자양동 25-2 생생한방병원,"서울특별시 광진구 동일로 82-1, 생생한방병원 지하1~5층 (자양동)",205507.103014693,448633.824455964,127.063097486136,37.5399452105408,"서울특별시 광진구 동일로 82-1, 생생한방병원 지하15층 (자양동)"
PHMA220083040033021200002,에스(S)리더치과병원,치과병원,"서울특별시 광진구 화양동 6번지 1호 3, 4층","서울특별시 광진구 능동로 103, 3.4층 (화양동)",206163.281973626,448682.578827966,127.07050713429,37.5403340350698,"서울특별시 광진구 능동로 103, 3.4층 (화양동)"
PHMA219623040033021200001,국립정신건강센터,병원,서울특별시 광진구 중곡동 30번지 1호,"서울특별시 광진구 용마산로 127 (중곡동, 국립정신건강센터)",207510.076791915,451417.864438667,127.085776641765,37.5650862337223,"서울특별시 광진구 용마산로 127 (중곡동, 국립정신건강센터)"
PHMA220203040033021200001,오석한방병원,한방병원,서울특별시 광진구 구의동 252-16 웰츠타워,"서울특별시 광진구 자양로 116, 301~307호,310~312호 (구의동, 웰츠타워)",207342.766106556,448444.754635481,127.083851802019,37.5382469769869,"서울특별시 광진구 자양로 116, 301307호,310312호 (구의동, 웰츠타워)"
PHMA220193050034021200002,엘치과병원,치과병원,서울특별시 동대문구 답십리동 94번지 9호 목련빌딩 3층,"서울특별시 동대문구 전농로 102, 3층 (답십리동)",205049.095910832,452418.270436454,127.057855083646,37.5739827977728,"서울특별시 동대문구 전농로 102, 3층 (답십리동)"
PHMA220023050034021200003,다일천사병원,병원,서울특별시 동대문구 전농동 497번지 77호 천사병원,"서울특별시 동대문구 서울시립대로 57, 천사병원 B1,1,2,3,6층 (전농동)",204144.571455523,452698.185280802,127.047618863634,37.5766741362136,"서울특별시 동대문구 서울시립대로 57, 천사병원 B1,1,2,3,6층 (전농동)"
PHMA220073050034021200002,신우요양병원,요양병원(일반요양병원),"서울특별시 동대문구 전농동 1번지 64호 지하1,지상1,3~6층","서울특별시 동대문구 한천로 207, 지하1,지상1,3~6층 (전농동)",205941.750825049,453021.411389519,127.068137023958,37.579542482041,"서울특별시 동대문구 한천로 207, 지하1,지상1,36층 (전농동)"
PHMA220073050034021200005,햇살요양병원,요양병원(일반요양병원),서울특별시 동대문구 장안동 309번지 1호 원우빌딩,"서울특별시 동대문구 장한로 152, 지하1~2층, 지상3 ~10층 (장안동)",206308.895815759,452418.27571097,127.072181420118,37.5740057214541,"서울특별시 동대문구 장한로 152, 지하12층, 지상3 10층 (장안동)"
PHMA220123050034021200001,하늘병원,병원,서울특별시 동대문구 답십리동 492번지 2호 하늘병원,"서울특별시 동대문구 천호대로 317, 하늘병원 (답십리동)",204831.461305899,451444.505952989,127.055634655029,37.565178527398,"서울특별시 동대문구 천호대로 317, 하늘병원 (답십리동)"
PHMA220193050034021200001,서울탑병원,병원,서울특별시 동대문구 제기동 892번지 64호,"서울특별시 동대문구 정릉천동로 102, 지하1층~지상4층 (제기동)",203109.595530999,453230.287283096,127.036023592372,37.5814263021675,"서울특별시 동대문구 정릉천동로 102, 지하1층지상4층 (제기동)"
PHMA220213050034021200001,365매일한방병원,한방병원,서울특별시 동대문구 신설동 101-5,"서울특별시 동대문구 천호대로 3, 지하1,지상1~2층 (신설동)",202081.864808843,452565.40876479,127.024344406042,37.5753483891625,"서울특별시 동대문구 천호대로 3, 지하1,지상12층 (신설동)"
PHMA219713050034021200003,경희대학교치과병원,치과병원,서울특별시 동대문구 회기동 1번지 5호,"서울특별시 동대문구 경희대로 23 (회기동, 경희의료원)",204469.209049094,454934.047367752,127.050741696591,37.5937762050989,"서울특별시 동대문구 경희대로 23 (회기동, 경희의료원)"
PHMA220113050034021200006,린여성병원,병원,서울특별시 동대문구 장안동 370번지 1호 외 1필지 (본관 및 신관),"서울특별시 동대문구 답십리로 266, 파워스빌딩 (장안동)",206099.743325087,452218.18881442,127.069844464433,37.5722812717492,"서울특별시 동대문구 답십리로 266, 파워스빌딩 (장안동)"
PHMA220073060034021200015,조앤조병원,병원,서울특별시 중랑구 망우동 207번지 1호,"서울특별시 중랑구 망우로 474 (망우동, 조앤조병원)",209177.682798072,455333.044481669,127.10471509743,37.6003063622164,"서울특별시 중랑구 망우로 474 (망우동, 조앤조병원)"
PHMA219913050034021200001,서울성심병원,종합병원,서울특별시 동대문구 청량리동 40번지 9호 서울성심병원 (40-9외 7필지),"서울특별시 동대문구 왕산로 259, 서울성심병원 (청량리동)",204343.550551468,453554.680324706,127.049819830411,37.5841890473051,"서울특별시 동대문구 왕산로 259, 서울성심병원 (청량리동)"
PHMA220163050034021200001,대한민국요양병원,요양병원(일반요양병원),"서울특별시 동대문구 장안동 313번지 3호 지하1층,지상1~11층","서울특별시 동대문구 장한로 200 (장안동, KS빌딩)",206335.296609078,452888.851973774,127.072483976271,37.5782947193958,"서울특별시 동대문구 장한로 200 (장안동, KS빌딩)"
PHMA220163060034021200001,연세본병원,병원,,"서울특별시 중랑구 면목로 310, 4,5,6,7층일부층 (면목동)",207702.839931452,453039.34552948,127.087950762615,37.5796278612169,"서울특별시 중랑구 면목로 310, 4,5,6,7층일부층 (면목동)"
PHMA220143060034021200001,마인드웰병원,요양병원(정신병원),,"서울특별시 중랑구 망우로 403, 5층,6층,7층 (망우동)",208490.019432559,455252.715739808,127.096874533303,37.5994577479171,"서울특별시 중랑구 망우로 403, 5층,6층,7층 (망우동)"
PHMA220113060034021200003,디앤에프병원,병원,서울특별시 중랑구 중화동 110번지 43호,"서울특별시 중랑구 봉화산로 64 (중화동, 디엔에프병원)",207125.811484424,455464.287801328,127.0814933261,37.6014874991796,"서울특별시 중랑구 봉화산로 64 (중화동, 디엔에프병원)"
PHMA220133060034021200002,팔팔병원,병원,,"서울특별시 중랑구 동일로 679 (면목동, 88병원)",,,127.07969838544,37.5909406409469,"서울특별시 중랑구 동일로 679 (면목동, 88병원)"
PHMA220163060034021200002,늘찬병원,병원,서울특별시 중랑구 면목동 179-24 화성빌딩,"서울특별시 중랑구 동일로 643, 화성빌딩 지하1, 2~8층 (면목동)",206963.656507439,453966.434982103,127.079680860838,37.5879908042663,"서울특별시 중랑구 동일로 643, 화성빌딩 지하1, 28층 (면목동)"
PHMA220213070034021200001,성북미올한방병원,한방병원,서울특별시 성북구 동선동1가 1-2 유타,"서울특별시 성북구 동소문로 106, 유타 8~9층 (동선동1가)",201447.418693099,454477.103343093,127.017088831326,37.5925747617089,"서울특별시 성북구 동소문로 106, 유타 89층 (동선동1가)"
PHMA220123090033021200003,포근한맘요양병원,요양병원(일반요양병원),서울특별시 도봉구 쌍문동 508-2 2~5층,"서울특별시 도봉구 삼양로 606, 2~5층 (쌍문동)",201152.846482468,461631.083128695,127.013807362018,37.6570767619237,"서울특별시 도봉구 삼양로 606, 25층 (쌍문동)"
PHMA220153090033021200001,베이직병원,병원,서울특별시 도봉구 쌍문동 508번지 1호,"서울특별시 도봉구 삼양로 610, 지하1층층 지상1,2,3,4호 (쌍문동, 산수디앤씨)",201167.086526829,461671.469939607,127.013910559778,37.6574508375486,"서울특별시 도봉구 삼양로 610, 지하1층층 지상1,2,3,4호 (쌍문동, 산수디앤씨)"
PHMA220053090033021200001,로덴성문치과병원,치과병원,서울특별시 도봉구 쌍문동 657번지 예일빌딩5층,"서울특별시 도봉구 도봉로 569, 5층 (쌍문동, 준우빌딩)",203334.767507709,461499.945330147,127.038586135549,37.6558968289656,"서울특별시 도봉구 도봉로 569, 5층 (쌍문동, 준우빌딩)"
PHMA220123090033021200001,성모샘병원,병원,서울특별시 도봉구 방학동 703번지 14호,"서울특별시 도봉구 도봉로 683, 5,6,7층 (방학동)",203651.208011649,462576.540812657,127.041934071403,37.6654906885636,"서울특별시 도봉구 도봉로 683, 5,6,7층 (방학동)"
PHMA220133090033021200001,정요양병원,요양병원(일반요양병원),"서울특별시 도봉구 쌍문동 707-13 정병원 5,6층","서울특별시 도봉구 도봉로 639, 정병원 5,6층 (쌍문동)",203622.893166335,462131.666721357,127.041827824083,37.6615683053274,"서울특별시 도봉구 도봉로 639, 정병원 5,6층 (쌍문동)"
PHMA220043100034021200001,강북예치과병원,치과병원,서울특별시 노원구 상계동 606-12 노원스퀘어,"서울특별시 노원구 노해로81길 5-6, 노원스퀘어 5-7층 (상계동)",205435.716185577,461429.381910888,127.062476980624,37.6552060831882,"서울특별시 노원구 노해로81길 5-6, 노원스퀘어 5-7층 (상계동)"
PHMA220213170035021200001,경희리솜한방병원,한방병원,서울특별시 금천구 시흥동 113-14 리솜메디라이프,"서울특별시 금천구 시흥대로79길 15, 리솜메디라이프 4~7층 (시흥동)",190879.063907895,439641.061761598,126.897681476166,37.4588902854241,"서울특별시 금천구 시흥대로79길 15, 리솜메디라이프 47층 (시흥동)"
PHMA220143110032021200001,한국효요양병원,요양병원(일반요양병원),"서울특별시 은평구 응암동 96번지 1호 상현빌딩 6,7,8층","서울특별시 은평구 은평로 170, 6층,7층,8층 (응암동, 상현빌딩동)",193475.567133743,455434.54525995,126.926662375326,37.6010893852841,"서울특별시 은평구 은평로 170, 6층,7층,8층 (응암동, 상현빌딩동)"
PHMA220123110032021200001,로하스은평효요양병원,요양병원(일반요양병원),서울특별시 은평구 갈현동 460번지 8호 보성빌,"서울특별시 은평구 연서로 209, 보성빌 2,3일부,4~6층 (갈현동)",192761.348927256,457225.218523112,126.918847427928,37.6173259520379,"서울특별시 은평구 연서로 209, 보성빌 2,3일부,46층 (갈현동)"
PHMA220163110032021200001,21C메트로한방병원,한방병원,"서울특별시 은평구 신사동 8번지 5호 2층 201,202호","서울특별시 은평구 갈현로 24, 2층 201,202호 (신사동)",192023.767867284,455324.346591988,126.910468934803,37.6000492809376,"서울특별시 은평구 갈현로 24, 2층 201,202호 (신사동)"
PHMA220213110032021200001,미올한방병원,한방병원,,"서울특별시 은평구 통일로 636, 은평 미드스퀘어 4,5층 (녹번동)",,,126.935311316206,37.603517115574,"서울특별시 은평구 통일로 636, 은평 미드스퀘어 4,5층 (녹번동)"
PHMA220163110032021200002,의료법인 성누가의료재단 성누가병원,병원,서울특별시 은평구 불광동 281번지 102호 불광메디컬타워 1~12층,"서울특별시 은평구 통일로 726, 불광메디컬타워 1~12층 (불광동)",193778.708753016,456467.985518055,126.930328513931,37.610530375217,"서울특별시 은평구 통일로 726, 불광메디컬타워 112층 (불광동)"
PHMA220183110032021200001,시온한방병원,한방병원,서울특별시 은평구 응암동 119번지 33호 정원빌딩,"서울특별시 은평구 응암로 267, 정원빌딩 (응암동)",192747.915890233,454846.243806105,126.918661945965,37.5958556930176,"서울특별시 은평구 응암로 267, 정원빌딩 (응암동)"
PHMA220173110032021200001,리드힐병원,병원,,"서울특별시 은평구 연서로 10, 지하2~지상9층 (역촌동)",192551.107788678,455302.602978857,126.91645570925,37.5999863665584,"서울특별시 은평구 연서로 10, 지하2지상9층 (역촌동)"
PHMA220073110032021200001,하나효요양병원,요양병원(일반요양병원),서울특별시 은평구 구산동 2번지 36호 세웅그룹빌딩 3~9층,"서울특별시 은평구 서오릉로 149, 세웅그룹빌딩 3~9층 (구산동)",192530.535974525,456583.709636542,126.916212472705,37.6115932839556,"서울특별시 은평구 서오릉로 149, 세웅그룹빌딩 39층 (구산동)"
PHMA220153120033021200002,잎사귀치과병원,치과병원,서울특별시 서대문구 창천동 62번지 1호,"서울특별시 서대문구 연세로5길 26, 5,7,9층 (창천동)",194225.223182536,450479.459045435,126.935430006304,37.5565766684541,"서울특별시 서대문구 연세로5길 26, 5,7,9층 (창천동)"
PHMA220153120033021200001,제이여성병원,병원,서울특별시 서대문구 홍제동 251번지 4호,"서울특별시 서대문구 통일로 442 (홍제동, 제이여성병원)",195065.292655665,454025.078627384,126.944925532604,37.5885147216693,"서울특별시 서대문구 통일로 442 (홍제동, 제이여성병원)"
PHMA220153120033021200003,가자연세병원,병원,서울특별시 서대문구 남가좌동 102번지 3호,"서울특별시 서대문구 수색로 18, 2~5층 (남가좌동, 영보웨딩부페)",192562.973370487,451852.14962353,126.916604435974,37.5689948368822,"서울특별시 서대문구 수색로 18, 25층 (남가좌동, 영보웨딩부페)"
PHMA220093150037021200001,더와이즈치과병원,치과병원,서울특별시 강서구 화곡동 114-100 세웅빌딩,"서울특별시 강서구 화곡로 186, 세웅빌딩 1~5층 (화곡동)",185980.84281788,448892.642715531,126.842154253168,37.5421792594411,"서울특별시 강서구 화곡로 186, 세웅빌딩 15층 (화곡동)"
PHMA219913120033021200001,의료법인 원중의료재단 우리내일병원,병원,서울특별시 서대문구 북아현동 126-22 우리내일병원,"서울특별시 서대문구 신촌로37길 10, 우리내일병원 지하4층~지하1층 ,4층~10층호 (북아현동)",196133.132581904,450605.406841536,126.957137829236,37.5576654886412,"서울특별시 서대문구 신촌로37길 10, 우리내일병원 지하4층지하1층 ,4층10층호 (북아현동)"
PHMA219943120033021200001,의료법인동신의료재단 동신병원,종합병원,,"서울특별시 서대문구 연희로 272, 동신병원 본관동 (홍은동)",194321.417441299,453224.786009361,126.936583290985,37.5811060838344,"서울특별시 서대문구 연희로 272, 동신병원 본관동 (홍은동)"
PHMA220213130033021200002,한창한방병원,한방병원,,"서울특별시 마포구 와우산로 48, 로하스타워 2층 (상수동)",193162.941502573,449587.977598681,126.923441090646,37.5485560282385,"서울특별시 마포구 와우산로 48, 로하스타워 2층 (상수동)"
PHMA220203130033021200001,메디람한방병원,한방병원,,"서울특별시 마포구 양화로 119, 디키즈코리아 B1~6층 (서교동)",,,126.919770087218,37.5543612441013,"서울특별시 마포구 양화로 119, 디키즈코리아 B16층 (서교동)"
PHMA220203130033021200002,세솟는정형외과병원,병원,서울특별시 마포구 신수동 81번지 101호 세솟는병원,"서울특별시 마포구 백범로 26, 세솟는병원 (신수동)",194363.589730635,450007.19193806,126.937094594573,37.5523913517494,"서울특별시 마포구 백범로 26, 세솟는병원 (신수동)"
PHMA219993130033021200001,신촌연세병원,병원,서울특별시 마포구 신수동 66번지 1호 지2층~6층,"서울특별시 마포구 서강로 110, 지2층~6층 (신수동)",194068.379605116,450023.977767846,126.933734666413,37.5525892651719,"서울특별시 마포구 서강로 110, 지2층6층 (신수동)"
PHMA219953130033021200001,혜당한방병원,한방병원,,"서울특별시 마포구 독막로 32, A동 지1,123457층 (합정동)",,,126.91681539989,37.5479471566876,"서울특별시 마포구 독막로 32, A동 지1,123457층 (합정동)"
PHMA220123130033021200001,에스엠씨요양병원,요양병원(일반요양병원),서울특별시 마포구 성산동 200번지 22호 SMC 지하1층~5층,"서울특별시 마포구 월드컵북로 165, 지하1층~5층 (성산동, SMC)",191971.007142007,451626.174437596,126.90984750519,37.5668779371243,"서울특별시 마포구 월드컵북로 165, 지하1층5층 (성산동, SMC)"
PHMA220133130033021200001,네모치과병원,치과병원,"서울특별시 마포구 동교동 166번지 1호 (3, 4층)","서울특별시 마포구 양화로 178, 3층 (동교동)",193316.900288756,450586.865060181,126.925213220295,37.5575046128363,"서울특별시 마포구 양화로 178, 3층 (동교동)"
PHMA220193170035021200002,금천한방병원,한방병원,서울특별시 금천구 시흥동 1031번지,"서울특별시 금천구 시흥대로73길 67, 4,6층 (시흥동)",190718.377249788,439322.42742435,126.895747370219,37.4559425553098,"서울특별시 금천구 시흥대로73길 67, 4,6층 (시흥동)"
PHMA220133130033021200002,한그루치과병원,치과병원,서울특별시 마포구 도화동 566번지 자람빌딩 3층,"서울특별시 마포구 마포대로 78, 자람빌딩 3층 (도화동)",195494.021183312,448852.379796745,126.949787848373,37.5418967410602,"서울특별시 마포구 마포대로 78, 자람빌딩 3층 (도화동)"
PHMA220153130033021200001,신촌다인치과병원,치과병원,"서울특별시 마포구 노고산동 57번지 1호 그랜드플라자 10층,11층","서울특별시 마포구 신촌로 94, 10층,11층 (노고산동, 그랜드플라자)",194273.598098938,450318.724130121,126.936001762116,37.5549939272318,"서울특별시 마포구 신촌로 94, 10층,11층 (노고산동, 그랜드플라자)"
PHMA220173130033021200001,연세한강병원,병원,서울특별시 마포구 마포동 33번지 1호 대농빌딩,"서울특별시 마포구 마포대로 25, 대농빌딩 2,3,5층 (마포동)",195051.53369717,448575.956518546,126.94483383803,37.539374073789,"서울특별시 마포구 마포대로 25, 대농빌딩 2,3,5층 (마포동)"
PHMA220033140033021200001,포미즈여성병원,병원,,"서울특별시 양천구 공항대로 610 (목동, 정종일산부인과)",188635.230900983,449396.806374349,126.87235841377,37.546789059764,"서울특별시 양천구 공항대로 610 (목동, 정종일산부인과)"
PHMA220213140033021200001,바른지성한방병원,한방병원,서울특별시 양천구 신정동 994-5,"서울특별시 양천구 목동로 189, 2,3,4층 (신정동)",187917.430453569,447015.243697217,126.864179564702,37.5253121699935,"서울특별시 양천구 목동로 189, 2,3,4층 (신정동)"
PHMA220153100034021200001,서울제일한방병원,한방병원,,"서울특별시 노원구 노원로 461, 2층 (상계동)",,,127.06561735906,37.657441877009,"서울특별시 노원구 노원로 461, 2층 (상계동)"
PHMA220123140033021200002,라온휴병원,병원,서울특별시 양천구 신월동 550번지 3호 승일뷰티타워 8~9층,"서울특별시 양천구 신월로 164, 8층 9층 (신월동, 승일뷰티타워)",185962.809546697,446176.170952681,126.842018042503,37.517760427962,"서울특별시 양천구 신월로 164, 8층 9층 (신월동, 승일뷰티타워)"
PHMA220093140033021200001,목동중앙치과병원,치과병원,서울특별시 양천구 신정동 318번지 5호 황금프라자 10층,"서울특별시 양천구 목동서로 285, 황금프라자 10층 (신정동)",188363.725402734,446631.246949745,126.869139916545,37.5218566614959,"서울특별시 양천구 목동서로 285, 황금프라자 10층 (신정동)"
PHMA220073140033021200001,양천효요양병원,요양병원(일반요양병원),서울특별시 양천구 신정동 942번지 12호,"서울특별시 양천구 오목로 121 (신정동, 양천효요양병원)",186770.943308232,446907.841242813,126.851143370152,37.5243043661521,"서울특별시 양천구 오목로 121 (신정동, 양천효요양병원)"
PHMA220213150037021200001,치유본한방병원,한방병원,서울특별시 강서구 화곡동 114-12 더와이즈황병원,"서울특별시 강서구 화곡로 188, 더와이즈황병원 3~8층 (화곡동)",186001.490296079,448899.500159804,126.842368303971,37.542249643073,"서울특별시 강서구 화곡로 188, 더와이즈황병원 38층 (화곡동)"
PHMA220193150037021200002,강서바른세상병원,병원,서울특별시 강서구 방화동 606번지 36호 바른세상병원,"서울특별시 강서구 금낭화로 9, 바른세상병원 1,2,3,4,5,층 6,7호 (방화동)",183284.388090473,451554.110365625,126.811603359943,37.5661373795288,"서울특별시 강서구 금낭화로 9, 바른세상병원 1,2,3,4,5,층 6,7호 (방화동)"
PHMA220193150037021200003,에스앤유서울병원,병원,서울특별시 강서구 마곡동 797 에이스타워 마곡,"서울특별시 강서구 공항대로 237, 에이스타워 마곡 3,4,5,6층 (마곡동)",,,126.833912548403,37.5594526887597,"서울특별시 강서구 공항대로 237, 에이스타워 마곡 3,4,5,6층 (마곡동)"
PHMA220223150037021200001,서울원병원,병원,서울특별시 강서구 화곡동 1051-22,"서울특별시 강서구 강서로 179, 6~10층 (화곡동)",185707.523969202,448909.904413961,126.839322200876,37.5423627575293,"서울특별시 강서구 강서로 179, 610층 (화곡동)"
PHMA220193150037021200001,힘찬하나로한방병원,한방병원,서울특별시 강서구 화곡동 1065번지 22호 터보빌딩,"서울특별시 강서구 강서로 173, 터보빌딩 7,8,9층 (화곡동)",185758.413008633,448865.327203194,126.83962220933,37.5419221264693,"서울특별시 강서구 강서로 173, 터보빌딩 7,8,9층 (화곡동)"
PHMA220183150037021200001,서울큰나무병원,병원,서울특별시 강서구 화곡동 1026번지 12호,"서울특별시 강서구 강서로 206, 2,3,4,5,6층 (화곡동)",185617.497941805,449153.637971735,126.838042848917,37.5445253885171,"서울특별시 강서구 강서로 206, 2,3,4,5,6층 (화곡동)"
PHMA220203150037021200003,보금한방병원,한방병원,서울특별시 강서구 마곡동 799-11 파인스퀘어,"서울특별시 강서구 마곡중앙4로 22, 파인스퀘어 3,4층 (마곡동)",,,126.829009917866,37.5582829549403,"서울특별시 강서구 마곡중앙4로 22, 파인스퀘어 3,4층 (마곡동)"
PHMA220073150037021200002,서울스타병원,병원,서울특별시 강서구 내발산동 678번지 7호 서울스타병원빌딩,"서울특별시 강서구 강서로 307, 서울스타병원빌딩 3,4,5,6,7,층 8,9호 (내발산동)",185458.962703807,450122.621875688,126.836227554297,37.5532303968282,"서울특별시 강서구 강서로 307, 서울스타병원빌딩 3,4,5,6,7,층 8,9호 (내발산동)"
PHMA220203150037021200002,무척바른한방병원,한방병원,서울특별시 강서구 마곡동 800번지 5호,"서울특별시 강서구 공항대로 228, 4,5층 (마곡동)",185148.900294753,450719.380288227,126.832674163293,37.5586327456572,"서울특별시 강서구 공항대로 228, 4,5층 (마곡동)"
PHMA220163150037021200001,365강서수요양병원,요양병원(일반요양병원),서울특별시 강서구 방화동 495번지 26호,"서울특별시 강서구 양천로 35, 1~6층 (방화동)",182940.086694869,452319.805032727,126.807691849796,37.5729712404467,"서울특별시 강서구 양천로 35, 16층 (방화동)"
PHMA220173150037021200001,경희생생한방병원,한방병원,서울특별시 강서구 등촌동 700 플러스존,"서울특별시 강서구 공항대로41길 34, 플러스존 3,4층 (등촌동)",186299.74267687,450792.016505679,126.84571196058,37.5592796685251,"서울특별시 강서구 공항대로41길 34, 플러스존 3,4층 (등촌동)"
PHMA220043150037021200002,솔병원,병원,서울특별시 강서구 방화동 273번지 7호,"서울특별시 강서구 방화대로 352, 1~4층 (방화동)",183782.987028949,452237.309625707,126.817374071497,37.5723588933046,"서울특별시 강서구 방화대로 352, 14층 (방화동)"
PHMA220093150037021200002,의료법인 나누리병원,병원,서울특별시 강서구 화곡동 377번지 8호 나누리강서병원,"서울특별시 강서구 가로공원로 187, 나누리강서병원 (화곡동)",185500.498361103,448361.495133865,126.836699017573,37.5373576230977,"서울특별시 강서구 가로공원로 187, 나누리강서병원 (화곡동)"
PHMA220103150037021200001,새빛요양병원,요양병원(일반요양병원),서울특별시 강서구 등촌동 664번지 11호 천수빌딩,"서울특별시 강서구 화곡로61길 109, 천수빌딩 2,3,4,5층 (등촌동)",186351.227100195,450679.42643207,126.846467967864,37.5583008205634,"서울특별시 강서구 화곡로61길 109, 천수빌딩 2,3,4,5층 (등촌동)"
PHMA220203150037021200001,모나리자요양병원,요양병원(일반요양병원),서울특별시 강서구 염창동 252번지 14호,"서울특별시 강서구 양천로 715, 지하3층~8층 (염창동)",188933.762268533,449722.993690775,126.87554952333,37.5497887355798,"서울특별시 강서구 양천로 715, 지하3층8층 (염창동)"
PHMA220103150037021200003,강서힘찬병원,병원,서울특별시 강서구 등촌동 671번지,"서울특별시 강서구 강서로56길 38 (등촌동, 강서힘찬병원)",185851.053632398,450781.441229945,126.840668886961,37.5591929622171,"서울특별시 강서구 강서로56길 38 (등촌동, 강서힘찬병원)"
PHMA220123150037021200002,방화병원,병원,서울특별시 강서구 방화동 572번지 11호,"서울특별시 강서구 양천로 92, 지하1, 지상1~6층 층호 (방화동, 방화정형외과)",183500.183270254,452337.321434998,126.813998111564,37.5732366865058,"서울특별시 강서구 양천로 92, 지하1, 지상16층 층호 (방화동, 방화정형외과)"
PHMA220113150037021200001,부민병원,종합병원,서울특별시 강서구 등촌동 657번지 부민병원,"서울특별시 강서구 공항대로 389, 부민병원 (등촌동)",186760.104674723,450529.28291819,126.850904790759,37.5568628399174,"서울특별시 강서구 공항대로 389, 부민병원 (등촌동)"
PHMA220083150037021200002,서울바로나치과병원,치과병원,서울특별시 강서구 화곡동 1076번지 1호 지상5층,"서울특별시 강서구 화곡로 176-4, 5층 (화곡동)",185892.433353743,448833.020780674,126.841148635684,37.54165776434,"서울특별시 강서구 화곡로 176-4, 5층 (화곡동)"
PHMA219863150037021200001,실로암안과병원,병원,서울특별시 강서구 등촌동 512번지 18호,"서울특별시 강서구 등촌로 181 (등촌동, 실로암안과병원)",187731.084393625,449330.107139552,126.86223980574,37.5460169755054,"서울특별시 강서구 등촌로 181 (등촌동, 실로암안과병원)"
PHMA220033150037021200001,강서송도병원,병원,서울특별시 강서구 등촌동 669번지 1호,"서울특별시 강서구 공항대로 315 (등촌동, 서울시니어강서타워)",186043.311279081,450704.666838076,126.842791205411,37.5584986162827,"서울특별시 강서구 공항대로 315 (등촌동, 서울시니어강서타워)"
PHMA220103150037021200002,서울대효병원,병원,서울특별시 강서구 내발산동 701번지 15호 덕산빌딩,"서울특별시 강서구 강서로47가길 33, 덕산빌딩 2,3,4,5,6층 (내발산동)",185417.671117954,449870.265715482,126.835762212279,37.5511102446913,"서울특별시 강서구 강서로47가길 33, 덕산빌딩 2,3,4,5,6층 (내발산동)"
PHMA220033150037021200003,로고스치과병원,치과병원,서울특별시 강서구 등촌1동 673번지 1호 3층,"서울특별시 강서구 공항대로 281, 3층 (등촌동)",185691.656792662,450741.08614923,126.838903221185,37.5588597204818,"서울특별시 강서구 공항대로 281, 3층 (등촌동)"
PHMA220033150037021200002,웰튼병원,병원,서울특별시 강서구 마곡동 759-2,"서울특별시 강서구 마곡중앙5로 22, 지하1,2지상4,1층 0,11,12호 (마곡동)",184496.437996802,451677.575370424,126.825303015866,37.5672498211268,"서울특별시 강서구 마곡중앙5로 22, 지하1,2지상4,1층 0,11,12호 (마곡동)"
PHMA220193160034021200001,오케이요양병원,요양병원(일반요양병원),"서울특별시 구로구 고척동 50번지 48호 고척프라자 가동4,5층/나동3,4층","서울특별시 구로구 중앙로 64, 고척프라자 가동 4,5층/나동3,4층 (고척동)",187798.86926511,444629.704821749,126.862833580926,37.5037992525197,"서울특별시 구로구 중앙로 64, 고척프라자 가동 4,5층나동3,4층 (고척동)"
PHMA220213160034021200001,남서울요양병원,요양병원(일반요양병원),,"서울특별시 구로구 남부순환로 1291,  A동1,2,3,4,5,6,7층 B동 5,6,7층 (가리봉동)",,,126.894328055278,37.478889496799,"서울특별시 구로구 남부순환로 1291, A동1,2,3,4,5,6,7층 B동 5,6,7층 (가리봉동)"
PHMA220183160034021200002,더세인트요양병원,요양병원(일반요양병원),서울특별시 구로구 오류동 55번지 30호 더세인트빌딩,"서울특별시 구로구 경인로 218, 더세인트빌딩 B1.B중,3~15층 (오류동)",186237.293350949,443794.006000016,126.84516219796,37.4962524857221,"서울특별시 구로구 경인로 218, 더세인트빌딩 B1.B중,315층 (오류동)"
PHMA220103160034021200003,참튼튼병원,병원,서울특별시 구로구 구로동 1126번지 34호 금강빌딩,"서울특별시 구로구 시흥대로 547, 금강빌딩 지하1,2~10층(구로동), 디지털로32가길 25, 티타운빌딩 B102,103,205,206,302 (구로동)",191118.289291823,442223.132052108,126.900393590898,37.4821357843577,"서울특별시 구로구 시흥대로 547, 금강빌딩 지하1,210층(구로동), 디지털로32가길 25, 티타운빌딩 B102,103,205,206,302 (구로동)"
PHMA220113160034021200001,예스병원,병원,,"서울특별시 구로구 구로동로 147, MEDI FLOWER 147 (구로동)",189614.168824038,443289.375602701,126.883400470712,37.4916865049695,"서울특별시 구로구 구로동로 147, MEDI FLOWER 147 (구로동)"
PHMA220183160034021200001,재단법인 제중의료복지재단 제중요양병원,요양병원(일반요양병원),서울특별시 구로구 구로동 552번지 148호 제중요양병원,"서울특별시 구로구 새말로 60, 제중요양병원 지하2,동 1~9층 (구로동)",189911.987102804,444573.762665497,126.886639083503,37.5032247869143,"서울특별시 구로구 새말로 60, 제중요양병원 지하2,동 19층 (구로동)"
PHMA220163160034021200001,의료법인 서울효천의료재단 에이치플러스자립병원,병원,서울특별시 구로구 구로동 44번지 7호 고려 수 타워,"서울특별시 구로구 공원로6가길 4, 고려 수 타워 (구로동)",190344.191572332,444414.17086261,126.891600090782,37.5018900991034,"서울특별시 구로구 공원로6가길 4, 고려 수 타워 (구로동)"
PHMA220223090033021200002,희성한방병원,한방병원,"서울특별시 도봉구 방학동 676-21 SYO빌딩 1층, 4층","서울특별시 도봉구 방학로3길 6, SYO빌딩 1, 4층 (방학동)",203511.533290165,462249.755144886,127.040568535069,37.6625507246319,"서울특별시 도봉구 방학로3길 6, SYO빌딩 1, 4층 (방학동)"
PHMA220193160034021200003,일로한방병원,한방병원,서울특별시 구로구 오류동 44번지 10호 시티월드,"서울특별시 구로구 경인로 176, 501,502,601호 (오류동, 시티월드)",185875.875759586,443592.138806549,126.841018680923,37.4943907298586,"서울특별시 구로구 경인로 176, 501,502,601호 (오류동, 시티월드)"
PHMA220133160034021200001,의료법인 우리아이들 의료재단 우리아이들병원,병원,서울특별시 구로구 구로동 586번지 5호 삼전솔하임,"서울특별시 구로구 새말로 15, 2~9층 (구로동, 삼전솔하임)",189538.879839832,444449.405034497,126.882472051568,37.5021858199934,"서울특별시 구로구 새말로 15, 29층 (구로동, 삼전솔하임)"
PHMA220133160034021200002,아름제일병원,병원,,"서울특별시 구로구 새말로 94, 2~6층, 9층 / 새말로 110 지하1층동 3~6층 (구로동)",190244.829015482,444811.238193821,126.890498431184,37.5054702180553,"서울특별시 구로구 새말로 94, 26층, 9층 새말로 110 지하1층동 36층 (구로동)"
PHMA220003160034021200003,구로성심병원,종합병원,서울특별시 구로구 고척동 76번지 189호 구로성심병원,"서울특별시 구로구 경인로 427, 구로성심병원 (고척동)",188114.404383349,444166.198422671,126.866358244952,37.4996468654605,"서울특별시 구로구 경인로 427, 구로성심병원 (고척동)"
PHMA219763160034021200005,의료법인다나의료재단구로다나병원,병원,서울특별시 구로구 개봉동 353번지 2호,"서울특별시 구로구 개봉로 126 (개봉동, 구로다나병원빌딩)",187263.423644693,443866.789760211,126.85697132267,37.4967256249407,"서울특별시 구로구 개봉로 126 (개봉동, 구로다나병원빌딩)"
PHMA220073160034021200004,의료법인 어울림의료재단 정성요양병원,요양병원(일반요양병원),서울특별시 구로구 가리봉동 137번지 8호 정성요양병원,"서울특별시 구로구 남부순환로 1287, 정성요양병원 2.3.5층 남부순환로 107길 24동 (가리봉동)",190540.82626688,441868.707510887,126.893863967464,37.478959359531,"서울특별시 구로구 남부순환로 1287, 정성요양병원 2.3.5층 남부순환로 107길 24동 (가리봉동)"
PHMA220123160034021200002,삼성미래여성병원,병원,서울특별시 구로구 오류동 159번지 삼성미래여성병원,"서울특별시 구로구 서해안로 2296, 삼성미래여성병원 (오류동)",185813.59269965,443232.266575481,126.84044403086,37.4912413885939,"서울특별시 구로구 서해안로 2296, 삼성미래여성병원 (오류동)"
PHMA220143160034021200002,목동현대요양병원,요양병원(일반요양병원),,"서울특별시 구로구 중앙로 91, 본소클리닉스 (고척동)",,,126.860424211039,37.5055547409723,"서울특별시 구로구 중앙로 91, 본소클리닉스 (고척동)"
PHMA219833160034021200001,고려대학교의과대학부속구로병원,종합병원,,"서울특별시 구로구 구로동로 148, 고려대부속구로병원 (구로동)",,,126.884511034177,37.4911503253664,"서울특별시 구로구 구로동로 148, 고려대부속구로병원 (구로동)"
PHMA220103160034021200002,아나파한방병원,한방병원,서울특별시 구로구 고척동 324 신원프라자,"서울특별시 구로구 중앙로1길 18-18, 2층 (고척동, 신원프라자)",187870.470839962,444127.308633809,126.86358074399,37.4992309400309,"서울특별시 구로구 중앙로1길 18-18, 2층 (고척동, 신원프라자)"
PHMA220193170035021200001,파라솔요양병원,요양병원(일반요양병원),"서울특별시 금천구 시흥동 1031번지 엠타워 7,8,9,14,지하2층","서울특별시 금천구 시흥대로73길 67, 엠타워 7,8,9,14,지하2층 (시흥동)",,,126.895747370219,37.4559425553098,"서울특별시 금천구 시흥대로73길 67, 엠타워 7,8,9,14,지하2층 (시흥동)"
PHMA220103170035021200001,새움병원,병원,서울특별시 금천구 독산동 150번지 7호 새움병원,"서울특별시 금천구 시흥대로139길 8, 새움병원 (독산동)",190879.785534795,441215.679173384,126.897655390325,37.4730528935658,"서울특별시 금천구 시흥대로139길 8, 새움병원 (독산동)"
PHMA220153170035021200001,서울바른세상병원,병원,서울특별시 금천구 독산동 288번지 1호,"서울특별시 금천구 시흥대로 421 (독산동, 건국빌딩)",190880.477053829,441004.490706785,126.897740718324,37.471161927624,"서울특별시 금천구 시흥대로 421 (독산동, 건국빌딩)"
PHMA220113170035021200002,녹십자요양병원,요양병원(일반요양병원),서울특별시 금천구 시흥1동 890번지 4호 대의빌딩 3층,"서울특별시 금천구 시흥대로 202, 3,4층 (시흥동, 대의빌딩)",191257.611843222,438879.425058325,126.902116324348,37.4519657055732,"서울특별시 금천구 시흥대로 202, 3,4층 (시흥동, 대의빌딩)"
PHMA220113170035021200003,서울대효병원,병원,"서울특별시 금천구 시흥동 883번지 5호 서평빌딩 5,6,7층","서울특별시 금천구 시흥대로 230, 서평빌딩 5,6,7층 (시흥동)",191191.868732053,439144.877856068,126.901248278856,37.4544284428997,"서울특별시 금천구 시흥대로 230, 서평빌딩 5,6,7층 (시흥동)"
PHMA220083160034021200001,의료법인 미소들노인전문병원,요양병원(노인병원),서울특별시 구로구 개봉동 43번지 1호,"서울특별시 구로구 고척로21나길 88-41 (개봉동, 미소들병원)",185884.744012457,444536.915882661,126.841198898052,37.5028978149919,"서울특별시 구로구 고척로21나길 88-41 (개봉동, 미소들병원)"
PHMA220123170035021200001,금천수요양병원,요양병원(일반요양병원),서울특별시 금천구 독산동 899-6 2~9층,"서울특별시 금천구 남부순환로 1400, 2~9층 (독산동)",191659.51307314,441984.502153591,126.906431840366,37.4800298373276,"서울특별시 금천구 남부순환로 1400, 29층 (독산동)"
PHMA219943080033021200001,국립재활원,병원,,"서울특별시 강북구 삼각산로 58 (수유동, 국립재활원)",,,127.010264590667,37.638655704921,"서울특별시 강북구 삼각산로 58 (수유동, 국립재활원)"
PHMA220003180034021200007,대림성모병원,종합병원,서울특별시 영등포구 대림동 978번지 13호,"서울특별시 영등포구 시흥대로 657 (대림동, 대림성모병원)",191713.448635499,443157.388663332,126.90716733115,37.4906897932713,"서울특별시 영등포구 시흥대로 657 (대림동, 대림성모병원)"
PHMA220213180034021200003,신세계서울병원,병원,서울특별시 영등포구 영등포동4가 425-2 서울영등포동4가우체국,"서울특별시 영등포구 경인로 841, 서울영등포동4가우체국 (영등포동4가)",191619.249847095,446038.543732844,126.90604309721,37.5165301858178,"서울특별시 영등포구 경인로 841, 서울영등포동4가우체국 (영등포동4가)"
PHMA219933180034021200001,한림대학교 한강성심병원,종합병원,,"서울특별시 영등포구 버드나루로7길 12 (영등포동7가, 한강성심병원)",191948.638351124,446775.416951967,126.909691853641,37.5231765760718,"서울특별시 영등포구 버드나루로7길 12 (영등포동7가, 한강성심병원)"
PHMA219863180034021200001,가톨릭대학교 여의도성모병원,종합병원,,"서울특별시 영등포구 63로 10, 여의도성모병원 (여의도동)",,,126.936729826762,37.5182708055078,"서울특별시 영등포구 63로 10, 여의도성모병원 (여의도동)"
PHMA219923180034021200002,명지성모병원,종합병원,,"서울특별시 영등포구 도림로 156, 명지성모병원 (대림동)",,,126.899253678513,37.4938500790525,"서울특별시 영등포구 도림로 156, 명지성모병원 (대림동)"
PHMA220193180034021200001,대윤한방병원,한방병원,,"서울특별시 영등포구 영등포로 358, 대윤메디컬센터 지하1층, 2-5층 (신길동)",192673.697582258,445804.1857042,126.917968268233,37.5143975647918,"서울특별시 영등포구 영등포로 358, 대윤메디컬센터 지하1층, 2-5층 (신길동)"
PHMA220223090033021200001,팔팔요양병원,요양병원(일반요양병원),서울특별시 도봉구 도봉동 620-23 화성빌딩,"서울특별시 도봉구 시루봉로 310, 화성빌딩 (도봉동)",203762.994791244,463176.64494664,127.04348189855,37.6710214264697,"서울특별시 도봉구 시루봉로 310, 화성빌딩 (도봉동)"
PHMA220063180034021200004,마리아성모요양병원,요양병원(일반요양병원),,"서울특별시 영등포구 영중로 122 (영등포동8가, 일이빌딩)",191614.004747551,447216.005565246,126.905961808226,37.5271336588048,"서울특별시 영등포구 영중로 122 (영등포동8가, 일이빌딩)"
PHMA220213180034021200001,영등포봄한방병원,한방병원,,"서울특별시 영등포구 도림로 144, 88월드타워 6, 7층 (대림동)",190918.980623705,443464.033607263,126.89821279355,37.493335973391,"서울특별시 영등포구 도림로 144, 88월드타워 6, 7층 (대림동)"
PHMA220093180034021200001,대림요양병원,요양병원(일반요양병원),,"서울특별시 영등포구 가마산로 381 (대림동, 한세빌딩)",191066.851844501,444497.899912706,126.899771629438,37.502617398437,"서울특별시 영등포구 가마산로 381 (대림동, 한세빌딩)"
PHMA220153180034021200002,닥터김앤박요양병원,요양병원(일반요양병원),서울특별시 영등포구 영등포동8가 68번지 2층~5층,"서울특별시 영등포구 영중로 133, 2~5층 (영등포동8가)",191565.593190076,447346.655796394,126.905356763855,37.5283153796502,"서울특별시 영등포구 영중로 133, 25층 (영등포동8가)"
PHMA220143180034021200005,대명요양병원,요양병원(일반요양병원),,"서울특별시 영등포구 양평로 99, 지하2, 6~9층 (양평동4가, 대명빌딩)",190743.640805011,448249.539985718,126.89607164408,37.5364773083686,"서울특별시 영등포구 양평로 99, 지하2, 69층 (양평동4가, 대명빌딩)"
PHMA220203240033021200002,봄담한방병원,한방병원,,"서울특별시 강동구 양재대로 1596, 3~6층 (명일동)",,,127.143789655455,37.5480838851778,"서울특별시 강동구 양재대로 1596, 36층 (명일동)"
PHMA220153180034021200001,초록나무요양병원,요양병원(일반요양병원),서울특별시 영등포구 대림동 681번지,"서울특별시 영등포구 가마산로 368 (대림동, 메디칼빌딩)",191029.590652458,444340.940285174,126.899309010186,37.5013196472538,"서울특별시 영등포구 가마산로 368 (대림동, 메디칼빌딩)"
PHMA220173180034021200001,어울림병원,병원,서울특별시 영등포구 신길동 65번지 33호,"서울특별시 영등포구 영등포로 386 (신길동, 동인빌딩)",192946.280189392,445685.944518825,126.920961667237,37.513304886166,"서울특별시 영등포구 영등포로 386 (신길동, 동인빌딩)"
PHMA220133180034021200001,한강수병원,병원,,"서울특별시 영등포구 영등포로 83, 한강수병원 (양평동1가)",,,126.890927120461,37.5223803793707,"서울특별시 영등포구 영등포로 83, 한강수병원 (양평동1가)"
PHMA220143180034021200001,연세베스트요양병원,요양병원(일반요양병원),서울특별시 영등포구 신길동 861번지 일이빌딩,"서울특별시 영등포구 여의대방로 203 (신길동, 일이빌딩)",193034.345962851,444796.372057832,126.921989045162,37.5053684404988,"서울특별시 영등포구 여의대방로 203 (신길동, 일이빌딩)"
PHMA220203180034021200001,서울삼성요양병원,요양병원(일반요양병원),서울특별시 영등포구 문래동6가 2-1,"서울특별시 영등포구 선유로 51, 파인그라드빌딩 b1~8층 (문래동6가)",190094.718810574,446267.346676491,126.888708071931,37.5185865301027,"서울특별시 영등포구 선유로 51, 파인그라드빌딩 b18층 (문래동6가)"
PHMA220203240033021200001,서울프라임한방병원,한방병원,,"서울특별시 강동구 양재대로 1461, SC MEDI TOWER 6-13층 (길동)",212221.342539571,448245.019790445,127.139096030275,37.536390125858,"서울특별시 강동구 양재대로 1461, SC MEDI TOWER 6-13층 (길동)"
PHMA220073190033021200001,따뜻한치과병원,치과병원,서울특별시 동작구 사당동 1042번지 12호 3층,"서울특별시 동작구 동작대로 13, 3층 (사당동)",198266.295706794,441733.336446511,126.981247944297,37.4777838623709,"서울특별시 동작구 동작대로 13, 3층 (사당동)"
PHMA220183190033021200001,내이처럼치과병원,치과병원,서울특별시 동작구 사당동 138번지 3호 사당동 주상복합,"서울특별시 동작구 동작대로27다길 26, 2층 (사당동, 사당동 주상복합)",198181.94693414,442684.335470718,126.980262677064,37.4863158953627,"서울특별시 동작구 동작대로27다길 26, 2층 (사당동, 사당동 주상복합)"
PHMA220083190033021200001,연세제일요양병원,요양병원(일반요양병원),서울특별시 동작구 상도동 255번지 4호,"서울특별시 동작구 성대로 43 (상도동, 우리빌딩)",194064.994071226,444089.838269412,126.93366186004,37.498975188861,"서울특별시 동작구 성대로 43 (상도동, 우리빌딩)"
PHMA220113190033021200001,연세바른병원,병원,"서울특별시 동작구 사당동 147번지 29호 3층 및 2,4층 일부","서울특별시 동작구 사당로 300, 2·4층일부및3  층 (사당동, 이수자이)",198202.472533419,442471.241038085,126.980308511151,37.4844359490926,"서울특별시 동작구 사당로 300, 24층일부및3 층 (사당동, 이수자이)"
PHMA220153190033021200001,기분좋은한방병원,한방병원,"서울특별시 동작구 신대방동 358번지 3호 1,2,3층","서울특별시 동작구 여의대방로22길 98, 1,2,3층 (신대방동)",193333.327454456,443949.726296945,126.925451517201,37.4977611427389,"서울특별시 동작구 여의대방로22길 98, 1,2,3층 (신대방동)"
PHMA220193130033021200001,마포요양병원,요양병원(일반요양병원),,"서울특별시 마포구 성산로4길 33, 마포요양병원 지하1~5층 (성산동)",,,126.908724880466,37.5640950697612,"서울특별시 마포구 성산로4길 33, 마포요양병원 지하15층 (성산동)"
PHMA220193200033021200001,더웰샘한방병원,한방병원,서울특별시 관악구 남현동 1058번지 6호 한일프라자,"서울특별시 관악구 남현길 7, 한일프라자 4, 6층 (남현동)",197958.524057933,441542.490987188,126.977671473431,37.4760625825389,"서울특별시 관악구 남현길 7, 한일프라자 4, 6층 (남현동)"
PHMA220133200033021200001,척편한병원,병원,서울특별시 관악구 신림동 86번지 3호,"서울특별시 관악구 신림로 318, 4,5층 (신림동, 청암두산위브)",193773.070404044,442270.419248856,126.930252917369,37.4825754320038,"서울특별시 관악구 신림로 318, 4,5층 (신림동, 청암두산위브)"
PHMA220103200033021200002,강남초이스병원,병원,서울특별시 관악구 봉천동 875번지 8호,"서울특별시 관악구 남부순환로 1796, -1,2~5층 (봉천동, 삼호빌딩)",195473.034661719,442123.517997162,126.949595277943,37.4813226832698,"서울특별시 관악구 남부순환로 1796, -1,25층 (봉천동, 삼호빌딩)"
PHMA220213200033021200001,미올한방병원,한방병원,서울특별시 관악구 봉천동 869-12 대연빌딩,"서울특별시 관악구 남부순환로 1814, 대연빌딩 1,2,6층 (봉천동)",195647.366393622,442105.342411703,126.951566124274,37.4810358154572,"서울특별시 관악구 남부순환로 1814, 대연빌딩 1,2,6층 (봉천동)"
PHMA220143200033021200001,연세건우병원,병원,서울특별시 관악구 봉천동 869번지 12호 대연빌딩,"서울특별시 관악구 남부순환로 1814, 대연빌딩 3,4,8,9층 (봉천동)",195647.366393622,442105.342411703,126.951566124274,37.4810358154572,"서울특별시 관악구 남부순환로 1814, 대연빌딩 3,4,8,9층 (봉천동)"
PHMA220143200033021200002,강남수요양병원,요양병원(일반요양병원),"서울특별시 관악구 신림동 1421번지 55호 지1층, 2~11층","서울특별시 관악구 신림로64길 11, 지1층,2~11층 (신림동, 성재빌딩)",193779.105067109,442553.528776558,126.930446219324,37.4851759463482,"서울특별시 관악구 신림로64길 11, 지1층,211층 (신림동, 성재빌딩)"
PHMA219843200033021200001,에이치플러스 양지병원,종합병원,서울특별시 관악구 신림동 10번지 715호 양지병원,"서울특별시 관악구 남부순환로 1636, 양지병원 (신림동)",193961.371360025,442448.373509657,126.932565485407,37.4843693309109,"서울특별시 관악구 남부순환로 1636, 양지병원 (신림동)"
PHMA219973200033021200001,사랑의병원,병원,,"서울특별시 관악구 남부순환로 1860, -1,1,3,4,5층 (봉천동,  )",196058.834046152,441941.183199585,126.956285774259,37.4796247835746,"서울특별시 관악구 남부순환로 1860, -1,1,3,4,5층 (봉천동, )"
PHMA220063200033021200002,강남힐병원,병원,서울특별시 관악구 신림동 543-18 강남힐병원,"서울특별시 관악구 남부순환로 1449, 강남힐병원 (신림동)",192122.439315529,442168.547868945,126.911648078471,37.4816513439454,"서울특별시 관악구 남부순환로 1449, 강남힐병원 (신림동)"
PHMA220153200033021200001,심정병원,병원,서울특별시 관악구 신림동 527-13 삼남빌딩,"서울특별시 관악구 남부순환로 1485, 삼남빌딩 2~6층 (신림동)",192455.883042115,442267.149217637,126.915650135223,37.4823520999904,"서울특별시 관악구 남부순환로 1485, 삼남빌딩 26층 (신림동)"
PHMA220153200033021200002,관악서울대학교치과병원,치과병원,서울특별시 관악구 신림동 산 56번지 1호 지1~3층,"서울특별시 관악구 관악로 1, 지1~3층 (신림동)",196139.864969792,439023.167125842,126.94815644252,37.4662872666604,"서울특별시 관악구 관악로 1, 지13층 (신림동)"
PHMA220203200033021200001,바른사랑병원,병원,서울특별시 관악구 신림동 1638-1 삼모 더 프라임 타워,"서울특별시 관악구 신원로 35, 삼모 더 프라임 타워 3,7층 (신림동)",193643.274303943,442230.03574985,126.929023376476,37.4823122359729,"서울특별시 관악구 신원로 35, 삼모 더 프라임 타워 3,7층 (신림동)"
PHMA220083210034021200003,서울탑치과병원,치과병원,,"서울특별시 서초구 서초중앙로 39, 5층 (서초동)",,,127.015712528164,37.4852789881319,"서울특별시 서초구 서초중앙로 39, 5층 (서초동)"
PHMA220093210034021200006,고도일병원,병원,"서울특별시 서초구 반포동 736번지 9호 지하4층~9층/반포동 735-26 외1(지1층,2~4층)","서울특별시 서초구 강남대로 505 (반포동, 고도일 병원)",201943.524337491,444978.789098921,127.0227028296,37.50701445806,"서울특별시 서초구 강남대로 505 (반포동, 고도일 병원)"
PHMA220133210034021200001,365엠씨(mc)병원,병원,서울특별시 서초구 서초동 1657-1 서울365mc병원,"서울특별시 서초구 서초중앙로 126, 서울365mc병원 지하1층, 2~13층 (서초동)",201178.653260998,443421.176493515,127.014115205707,37.4929905549467,"서울특별시 서초구 서초중앙로 126, 서울365mc병원 지하1층, 213층 (서초동)"
PHMA220143210034021200002,이건목원리한방병원,한방병원,서울특별시 서초구 방배동 765번지 28호 1~3층,"서울특별시 서초구 동작대로 196, 1~3층 (방배동)",198443.787138915,443544.463726261,126.983148482297,37.4941089768471,"서울특별시 서초구 동작대로 196, 13층 (방배동)"
PHMA220163210034021200001,의료법인 참예원의료재단 서초참요양병원,요양병원(일반요양병원),,"서울특별시 서초구 양재대로 54, 지1,2층, 2~9층 (우면동, 서초참병원)",,,127.025360542615,37.4597639429523,"서울특별시 서초구 양재대로 54, 지1,2층, 29층 (우면동, 서초참병원)"
PHMA220093210034021200003,서울귀한이치과병원,치과병원,"서울특별시 서초구 반포동 20번지 45호 반포자이프라자 403, 404호","서울특별시 서초구 잠원로 24, 403,404호 (반포동, 반포자이프라자)",200800.417027918,444989.874340522,127.009873208557,37.5071156980651,"서울특별시 서초구 잠원로 24, 403,404호 (반포동, 반포자이프라자)"
PHMA220183210034021200001,올바로병원,병원,서울특별시 서초구 서초동 1515번지 4호 서원빌딩,"서울특별시 서초구 명달로 102, 서원빌딩 1-6층 (서초동)",200324.626408302,442669.649678322,127.004386280268,37.4862288033541,"서울특별시 서초구 명달로 102, 서원빌딩 1-6층 (서초동)"
PHMA220093220033021200004,강남을지대학교병원,병원,서울특별시 강남구 논현동 59 강남을지병원,"서울특별시 강남구 도산대로 202, 강남을지병원 B2~9층 (논현동)",202457.281306385,446353.555989885,127.028627227383,37.5194081037449,"서울특별시 강남구 도산대로 202, 강남을지병원 B29층 (논현동)"
PHMA220193210034021200001,참푸른병원,병원,서울특별시 서초구 방배동 795번지 22호 창생빌딩,"서울특별시 서초구 방배로 223, 창생빌딩 2~7층 (방배동)",199040.3746688,443425.063163148,126.989952127779,37.4930421480977,"서울특별시 서초구 방배로 223, 창생빌딩 27층 (방배동)"
PHMA220213210034021200001,광덕안정한방병원,한방병원,서울특별시 서초구 서초동 1338-21 코리아비지니스센타,"서울특별시 서초구 강남대로 309, 코리아비지니스센타 2층 (서초동)",202623.297219041,443154.964346798,127.030540330567,37.490622847029,"서울특별시 서초구 강남대로 309, 코리아비지니스센타 2층 (서초동)"
PHMA220213210034021200002,유디치과병원,치과병원,서울특별시 서초구 서초동 1338-21 코리아비지니스센타,"서울특별시 서초구 강남대로 309, 코리아비지니스센타 3층 (서초동)",202623.297219041,443154.964346798,127.030540330567,37.490622847029,"서울특별시 서초구 강남대로 309, 코리아비지니스센타 3층 (서초동)"
PHMA220193210034021200002,모커리한방병원,한방병원,서울특별시 서초구 서초동 1677번지 8호 프로비스타,"서울특별시 서초구 서초대로 338, 프로비스타 지하1층 지상2~8층 (서초동)",201577.653343873,443623.599964173,127.018624694157,37.494848257123,"서울특별시 서초구 서초대로 338, 프로비스타 지하1층 지상28층 (서초동)"
PHMA220203210034021200001,기쁨병원,병원,서울특별시 서초구 서초동 1426-1,"서울특별시 서초구 서초중앙로 4, 기쁨병원 (서초동)",201523.81737501,442288.685384896,127.018063486739,37.482713030212,"서울특별시 서초구 서초중앙로 4, 기쁨병원 (서초동)"
PHMA220193220033021200003,미림한방병원,한방병원,서울특별시 강남구 논현동 2-10 아이올리빌딩,"서울특별시 강남구 도산대로6길 14, 아이올리빌딩 1~4층 (논현동)",201848.507662396,445944.751663103,127.021642090552,37.5157286308297,"서울특별시 강남구 도산대로6길 14, 아이올리빌딩 14층 (논현동)"
PHMA220183220033021200004,노블케어요양병원,요양병원(일반요양병원),서울특별시 강남구 신사동 635,"서울특별시 강남구 언주로 858, 1관, 2관동 (신사동)",202934.182865829,447189.395799605,127.033840460892,37.5270011854191,"서울특별시 강남구 언주로 858, 1관, 2관동 (신사동)"
PHMA220213220033021200003,새로운병원,병원,서울특별시 강남구 논현동 55-3 새로운병원빌딩 지하1층일부~7층,"서울특별시 강남구 학동로 121, 새로운병원빌딩 지하1층일부~7층 (논현동)",202080.711326615,445562.134435278,127.024309875094,37.5122605080308,"서울특별시 강남구 학동로 121, 새로운병원빌딩 지하1층일부7층 (논현동)"
PHMA220123220033021200006,튼튼병원,병원,"서울특별시 강남구 청담동 71번지 3호 B1~6층, 7층일부,8층","서울특별시 강남구 영동대로 713, B1~6층, 7층일부,8층 (청담동)",204855.579518894,446576.858605648,127.055749348567,37.5213073708446,"서울특별시 강남구 영동대로 713, B16층, 7층일부,8층 (청담동)"
PHMA220093220033021200007,하나이비인후과병원,병원,"서울특별시 강남구 역삼2동 732번지 19호 지하2층일부,1층일부,2층~6층","서울특별시 강남구 역삼로 245 (역삼동, 지하2층일부 1층일부 2층~6층)",203732.302296988,443970.119760002,127.042973993719,37.4979195675135,"서울특별시 강남구 역삼로 245 (역삼동, 지하2층일부 1층일부 2층6층)"
PHMA220103220033021200002,아림치과병원,치과병원,"서울특별시 강남구 삼성1동 158번지 12호 서영빌딩 14층, 15층일부","서울특별시 강남구 테헤란로87길 13 (삼성동, 서영빌딩 14층,15층일부)",205112.755619722,445159.128108721,127.058591804414,37.5086333777282,"서울특별시 강남구 테헤란로87길 13 (삼성동, 서영빌딩 14층,15층일부)"
PHMA220203220033021200002,라이브치과병원,치과병원,,"서울특별시 강남구 논현로105길 48, 1,2층 (역삼동)",202606.298810258,444820.311556747,127.030262436139,37.505586922644,"서울특별시 강남구 논현로105길 48, 1,2층 (역삼동)"
PHMA220213220033021200005,네이처요양병원,요양병원(일반요양병원),,"서울특별시 강남구 헌릉로569길 21-40, 지하3~4층, 지하2층일부, 지하1층일부, 지상1층일부, 지상2~8층 (세곡동)",,,127.099727730082,37.4663990069661,"서울특별시 강남구 헌릉로569길 21-40, 지하34층, 지하2층일부, 지하1층일부, 지상1층일부, 지상28층 (세곡동)"
PHMA220113220033021200003,굿라이프치과병원,치과병원,서울특별시 강남구 논현동 200-7 urbanhive,"서울특별시 강남구 강남대로 476, urbanhive (논현동)",202121.293458771,444742.671288826,127.024789737061,37.5049095607089,"서울특별시 강남구 강남대로 476, urbanhive (논현동)"
PHMA220133220033021200001,안강병원,병원,"서울특별시 강남구 역삼동 773번지 6호 지하1층, 2~7층","서울특별시 강남구 언주로 327, 지하1층, 2~7층 (역삼동)",203902.605,443874.3,127.044978178433,37.4970871925109,"서울특별시 강남구 언주로 327, 지하1층, 27층 (역삼동)"
PHMA220213220033021200004,두발로병원,병원,,"서울특별시 강남구 압구정로30길 45, 2~4층 (신사동)",,,127.029403239407,37.5243502735902,"서울특별시 강남구 압구정로30길 45, 24층 (신사동)"
PHMA220203220033021200001,서울본브릿지병원,병원,,"서울특별시 강남구 도곡로 214, 롤스웰빌딩,지하2층, 지하1층, 지상1층 일부, 지상2~7층  (도곡동)",,,127.042417574623,37.4924616496392,"서울특별시 강남구 도곡로 214, 롤스웰빌딩,지하2층, 지하1층, 지상1층 일부, 지상27층 (도곡동)"
PHMA220093220033021200002,아이디병원,병원,서울특별시 강남구 논현동 5-6 아이디병원,"서울특별시 강남구 도산대로 142, 아이디병원 B1층,1,2,3층 (논현동)",202070.164260035,446161.944463499,127.024188449416,37.5176799808097,"서울특별시 강남구 도산대로 142, 아이디병원 B1층,1,2,3층 (논현동)"
PHMA220123220033021200001,광혜병원,병원,"서울특별시 강남구 대치동 995번지 27호 지하1~2층,2~7층","서울특별시 강남구 영동대로86길 9 (대치동, 지하1~2층,2~7층)",205649.655013836,445122.570820205,127.064771981255,37.508136490079,"서울특별시 강남구 영동대로86길 9 (대치동, 지하12층,27층)"
PHMA220093220033021200001,재단법인위담 위담한방병원,한방병원,"서울특별시 강남구 대치동 910번지 1호 2층,3층,5층,6층","서울특별시 강남구 역삼로 430 (대치동, 2층,3층,5층,6층)",204715.492151273,444352.092996928,127.054100822821,37.5014024300089,"서울특별시 강남구 역삼로 430 (대치동, 2층,3층,5층,6층)"
PHMA220163220033021200001,트리니티요양병원,요양병원(일반요양병원),"서울특별시 강남구 삼성동 77번지 23호 지하1,2층, 지상 1~11층","서울특별시 강남구 봉은사로 535 (삼성동, 트리니티재활병원빌딩, 지하1,2층, 지상1~11층)",205116.195218249,445783.267094395,127.058674361192,37.5142581260954,"서울특별시 강남구 봉은사로 535 (삼성동, 트리니티재활병원빌딩, 지하1,2층, 지상111층)"
PHMA220083220033021200007,비에비스나무병원,병원,서울특별시 강남구 논현동 175-10 유현빌딩,"서울특별시 강남구 논현로 627, 유현빌딩 지하2,1~9,12층 (논현동)",202777.698034814,445279.760385596,127.032357709285,37.5095608802296,"서울특별시 강남구 논현로 627, 유현빌딩 지하2,19,12층 (논현동)"
PHMA220083220033021200004,메드렉스병원,병원,서울특별시 강남구 논현동 37-18 메드렉스병원,"서울특별시 강남구 논현로 705, 메드렉스병원 (논현동)",202570.672187385,445856.917924672,127.029976515577,37.5148984268352,"서울특별시 강남구 논현로 705, 메드렉스병원 (논현동)"
PHMA219923220033021200001,윤호병원,병원,서울특별시 강남구 신사동 638-1 윤호병원,"서울특별시 강남구 압구정로 304, 윤호병원 (지하1층,지하2층,1층~4층,7층)  (신사동)",202969.639103322,447402.299460543,127.034414086692,37.5288443792735,"서울특별시 강남구 압구정로 304, 윤호병원 (지하1층,지하2층,1층4층,7층) (신사동)"
PHMA220083220033021200003,에스플란트치과병원,치과병원,서울특별시 강남구 청담동 2-6 3~8층,"서울특별시 강남구 도산대로 410, 3~8층 (청담동)",203510.626004375,446738.757759642,127.040482091901,37.5229744987941,"서울특별시 강남구 도산대로 410, 38층 (청담동)"
PHMA220173220033021200002,포레스트요양병원,요양병원(일반요양병원),서울특별시 강남구 신사동 587-16 느루요양병원빌딩,"서울특별시 강남구 도산대로 209, 느루요양병원빌딩 지하1~2층, 지상1~10층  (신사동)",202527.402058372,446478.329588626,127.029390644673,37.5205051577507,"서울특별시 강남구 도산대로 209, 느루요양병원빌딩 지하12층, 지상110층 (신사동)"
PHMA219943220033021200001,서울치과병원,치과병원,서울특별시 강남구 신사동 623,"서울특별시 강남구 언주로165길 5, 3~4층 (신사동)",202818.908706624,447058.234073349,127.032675688373,37.5257449759554,"서울특별시 강남구 언주로165길 5, 34층 (신사동)"
PHMA220013220033021200001,건강한세상앞선치과병원,치과병원,서울특별시 강남구 삼성동 159 도심공항타워 3층,"서울특별시 강남구 테헤란로87길 36, 도심공항타워 3층 (삼성동)",205130.591678902,445590.096837802,127.058597240146,37.5102336492314,"서울특별시 강남구 테헤란로87길 36, 도심공항타워 3층 (삼성동)"
PHMA220003220033021200002,수치과병원,치과병원,서울특별시 강남구 신사동 665-1,"서울특별시 강남구 선릉로 823, 3층 (신사동)",203403.459602989,447041.856582807,127.039342517747,37.5256355438421,"서울특별시 강남구 선릉로 823, 3층 (신사동)"
PHMA220083220033021200002,토마스병원,병원,서울특별시 강남구 신사동 638-8 구정빌딩,"서울특별시 강남구 언주로174길 15, 구정빌딩 (신사동)",203043.889495443,447360.980394068,127.035233806887,37.5285132897442,"서울특별시 강남구 언주로174길 15, 구정빌딩 (신사동)"
PHMA219993220033021200001,호산여성병원,병원,서울특별시 강남구 신사동 617-5 호산병원,"서울특별시 강남구 언주로 871, 호산병원 (신사동)",202879.096032846,447368.00014,127.033354132164,37.5285677154605,"서울특별시 강남구 언주로 871, 호산병원 (신사동)"
PHMA220133220033021200010,이솝한방병원,한방병원,서울특별시 강남구 삼성동 170 대윤빌딩,"서울특별시 강남구 영동대로96길 34, 대윤빌딩 1층 (삼성동)",205703.101076696,445447.143396027,127.065306310523,37.5111637511888,"서울특별시 강남구 영동대로96길 34, 대윤빌딩 1층 (삼성동)"
PHMA219993220033021200002,자생한방병원,한방병원,서울특별시 강남구 논현동 142-3 자생한방병원,"서울특별시 강남구 강남대로 536, 자생한방병원 (논현동)",201903.35,445314.635,127.022346212895,37.5100102769414,"서울특별시 강남구 강남대로 536, 자생한방병원 (논현동)"
PHMA220083220033021200001,수플란트치과병원,치과병원,서울특별시 강남구 신사동 665-1,"서울특별시 강남구 선릉로 823, 3층 (신사동)",203403.459602989,447041.856582807,127.039342517747,37.5256355438421,"서울특별시 강남구 선릉로 823, 3층 (신사동)"
PHMA220133220033021200008,강남제이에스병원,병원,서울특별시 강남구 도곡동 942-3 제이에스빌딩,"서울특별시 강남구 도곡로 122, 제이에스빌딩 (도곡동)",202913.913256452,443081.800019702,127.033722299153,37.4899230700564,"서울특별시 강남구 도곡로 122, 제이에스빌딩 (도곡동)"
PHMA219833220033021200002,연세대학교의과대학 강남세브란스병원,종합병원,서울특별시 강남구 도곡동 146-92 강남세브란스병원,"서울특별시 강남구 언주로 211, 강남세브란스병원 (도곡동)",204044.915103209,443372.921666623,127.04631039276,37.4928059943729,"서울특별시 강남구 언주로 211, 강남세브란스병원 (도곡동)"
PHMA220073220033021200003,강남유나이티드병원,병원,서울특별시 강남구 도곡동 957-14 하늘빌딩,"서울특별시 강남구 남부순환로 2609, 하늘빌딩, 7~12층 (도곡동) (도곡동)",203033.625147967,442530.69363817,127.035096207425,37.4849629812617,"서울특별시 강남구 남부순환로 2609, 하늘빌딩, 712층 (도곡동) (도곡동)"
PHMA220073220033021200007,미병원,병원,서울특별시 강남구 신사동 626-4 목산빌딩,"서울특별시 강남구 논현로168길 35, 목산빌딩, 지하2층, 3~5층 (신사동)",202689.244933816,446805.474107709,127.031207688172,37.5234638548834,"서울특별시 강남구 논현로168길 35, 목산빌딩, 지하2층, 35층 (신사동)"
PHMA219983220033021200002,재단법인대한스포츠의학재단강남나무병원,병원,서울특별시 강남구 대치동 994-5 경희한방병원,"서울특별시 강남구 영동대로 225, 경희한방병원 1층일부,2,3,8층 (대치동)",205914.434349289,444120.789449979,127.067578245689,37.4992063148395,"서울특별시 강남구 영동대로 225, 경희한방병원 1층일부,2,3,8층 (대치동)"
PHMA220183220033021200002,강남위담한방병원,한방병원,"서울특별시 강남구 대치동 960번지 5호 티아빌딩(지하2층일부, 2~7층)","서울특별시 강남구 삼성로 402, 지하2층일부, 2~7층 (대치동)",205136.934557818,444576.067034239,127.058834462033,37.5033679636045,"서울특별시 강남구 삼성로 402, 지하2층일부, 27층 (대치동)"
PHMA220153220033021200001,청담병원,병원,"서울특별시 강남구 청담동 15번지 1호 지하1층, 1층일부, 2층~6층","서울특별시 강남구 삼성로147길 46 (청담동, 청담병원 지하1층, 1층일부, 2층~6층)",203964.892184371,446494.018304012,127.045620972984,37.5207193079382,"서울특별시 강남구 삼성로147길 46 (청담동, 청담병원 지하1층, 1층일부, 2층6층)"
PHMA220033220033021200002,케이에스병원,병원,서울특별시 강남구 역삼동 682번지 23호,"서울특별시 강남구 선릉로 571 (역삼동, KS병원)",203815.564586215,445239.029037074,127.04394417081,37.5093181916322,"서울특별시 강남구 선릉로 571 (역삼동, KS병원)"
PHMA220033220033021200004,강남베드로병원,병원,서울특별시 강남구 도곡동 910번지 27호 베드로병원,"서울특별시 강남구 남부순환로 2649, 베드로병원 (도곡동)",203431.056596395,442602.524868873,127.039585419907,37.4856105587478,"서울특별시 강남구 남부순환로 2649, 베드로병원 (도곡동)"
PHMA220183220033021200003,청담힐요양병원,요양병원(일반요양병원),서울특별시 강남구 청담동 71번지 3호 9~14층,"서울특별시 강남구 영동대로 713, 9~14층 (청담동)",204855.579518894,446576.858605648,127.055749348567,37.5213073708446,"서울특별시 강남구 영동대로 713, 914층 (청담동)"
PHMA220143220033021200001,의료법인참예원의료재단강남구립행복요양병원,요양병원(일반요양병원),서울특별시 강남구 세곡동 521번지,"서울특별시 강남구 헌릉로590길 60 (세곡동, 강남구립 행복요양병원)",209074.683259571,439891.159496907,127.10332264232,37.4611766303736,"서울특별시 강남구 헌릉로590길 60 (세곡동, 강남구립 행복요양병원)"
PHMA220153220033021200002,담소유병원,병원,서울특별시 강남구 논현동 210 담소유빌딩,"서울특별시 강남구 학동로 234, 담소유빌딩 (논현동)",202989.733899789,445845.968560425,127.03461432013,37.5148604879121,"서울특별시 강남구 학동로 234, 담소유빌딩 (논현동)"
PHMA220053220033021200005,김정수여러분병원,병원,,"서울특별시 강남구 봉은사로 171 (논현동, 지하1층일부,1-5층,6층일부)",202811.441219718,444998.607939345,127.032576001066,37.5072207305514,"서울특별시 강남구 봉은사로 171 (논현동, 지하1층일부,1-5층,6층일부)"
PHMA220033220033021200003,나누리병원,병원,서울특별시 강남구 논현동 63-8 나누리병원,"서울특별시 강남구 언주로 731, 나누리병원 (논현동)",202937.146834213,446451.612982071,127.033979290041,37.5203066071262,"서울특별시 강남구 언주로 731, 나누리병원 (논현동)"
PHMA220053220033021200002,우리들병원,병원,서울특별시 강남구 청담동 47-4 우리들병원,"서울특별시 강남구 학동로 445, 우리들병원 (청담동)",204322.029055562,446314.495636826,127.049609103629,37.51909256106,"서울특별시 강남구 학동로 445, 우리들병원 (청담동)"
PHMA220023220033021200002,연치과병원,치과병원,서울특별시 강남구 대치동 606-1 대치탑프라자,"서울특별시 강남구 남부순환로 2941, 대치탑프라자 2층 (대치동)",205394.092661223,443559.8544451,127.061934331534,37.4942633335042,"서울특별시 강남구 남부순환로 2941, 대치탑프라자 2층 (대치동)"
PHMA220033220033021200001,제일정형외과병원,병원,"서울특별시 강남구 청담동 131-17 경일빌딩 1~12층, 14층, 지하1~2층, 지하4~5층","서울특별시 강남구 영동대로 726, 경일빌딩1~12층, 14층, 지하1~2층, 지하4~5층 (청담동)",204896.261746642,446730.548954636,127.05614063947,37.522820779835,"서울특별시 강남구 영동대로 726, 경일빌딩112층, 14층, 지하12층, 지하45층 (청담동)"
PHMA220063220033021200005,누네안과병원,병원,서울특별시 강남구 대치동 889-11 대치빌딩,"서울특별시 강남구 테헤란로 408, 대치빌딩 지상9층~지상17층 (대치동)",204376.538170228,444701.663711128,127.050387028274,37.5044682122431,"서울특별시 강남구 테헤란로 408, 대치빌딩 지상9층지상17층 (대치동)"
PHMA220213220033021200001,강남와이케이병원,병원,서울특별시 강남구 논현동 90-7 디와이빌딩,"서울특별시 강남구 학동로 233, 디와이빌딩 3층일부,4~6층 (논현동)",202995.512655196,445922.672107279,127.034698883723,37.5154979232616,"서울특별시 강남구 학동로 233, 디와이빌딩 3층일부,46층 (논현동)"
PHMA220153220033021200004,지앤지병원,병원,서울특별시 강남구 삼성동 90번지 14호 GNG병원빌딩 2층~10층,"서울특별시 강남구 영동대로 626, 2~10층 (삼성동, GNG병원빌딩)",205207.402270867,446004.891602084,127.059687052473,37.5162558646317,"서울특별시 강남구 영동대로 626, 210층 (삼성동, GNG병원빌딩)"
PHMA220213220033021200002,서울페이스21치과병원,치과병원,서울특별시 강남구 역삼동 825 미진프라자 21층,"서울특별시 강남구 강남대로 390, 미진프라자 21층 (역삼동)",202462.604763481,443960.186302868,127.028578846319,37.4978399531903,"서울특별시 강남구 강남대로 390, 미진프라자 21층 (역삼동)"
PHMA220183220033021200005,강남지인병원,병원,서울특별시 강남구 논현동 218-11 강남웨딩홀,"서울특별시 강남구 언주로 631, 강남웨딩홀 지하2,2~6층 (논현동)",203030.36156512,445624.927581211,127.03506818071,37.5128025510754,"서울특별시 강남구 언주로 631, 강남웨딩홀 지하2,26층 (논현동)"
PHMA220183220033021200007,미니쉬치과병원,치과병원,서울특별시 강남구 논현동 98-2,"서울특별시 강남구 언주로 728, 2~5,7~10층 (논현동)",203014.306499929,446403.195439449,127.034895808271,37.5198592622026,"서울특별시 강남구 언주로 728, 25,710층 (논현동)"
PHMA220073220033021200002,석플란트치과병원,치과병원,서울특별시 강남구 논현동 62-9,"서울특별시 강남구 도산대로 238, 1~14층 (논현동)",202866.391852676,446523.214714944,127.033213970528,37.5209346436653,"서울특별시 강남구 도산대로 238, 114층 (논현동)"
PHMA220153220033021200003,강남초이스정형외과병원,병원,,"서울특별시 강남구 테헤란로 337 (역삼동, 4~9층)",,,127.048457476412,37.5047949131565,"서울특별시 강남구 테헤란로 337 (역삼동, 49층)"
PHMA220203220033021200003,치휴한방병원,한방병원,,"서울특별시 강남구 도곡로 216, 치휴한방병원 (도곡동)",,,127.042721975071,37.4926493098547,"서울특별시 강남구 도곡로 216, 치휴한방병원 (도곡동)"
PHMA220133220033021200004,소람한방병원,한방병원,서울특별시 강남구 삼성동 116번지 1호,"서울특별시 강남구 봉은사로 468, 지하5~지상16층 (삼성동)",204434.01624045,445536.798608319,127.051002126051,37.5120663016873,"서울특별시 강남구 봉은사로 468, 지하5지상16층 (삼성동)"
PHMA220183220033021200006,씨티칼리지요양병원,요양병원(일반요양병원),서울특별시 강남구 논현동 94-22 카로시티Ⅲ,"서울특별시 강남구 선릉로 751, 카로시티Ⅲ (논현동)",203388.051395369,446619.586513596,127.039228689602,37.5217063100166,"서울특별시 강남구 선릉로 751, 카로시티Ⅲ (논현동)"
PHMA220193230034021200002,더바름치과병원,치과병원,,"서울특별시 송파구 석촌호수로 61, 트리지움상가 201호 (잠실동)",207553.918225133,445383.338011122,127.086224807954,37.5106960472158,"서울특별시 송파구 석촌호수로 61, 트리지움상가 201호 (잠실동)"
PHMA220193230034021200001,서울힐링요양병원,요양병원(일반요양병원),서울특별시 송파구 가락동 36번지 1호 한미사랑병원,"서울특별시 송파구 중대로 191, 서울힐링요양병원 (가락동)",211044.201099765,444104.194597019,127.125683181707,37.4990789571513,"서울특별시 송파구 중대로 191, 서울힐링요양병원 (가락동)"
PHMA220203230034021200002,새숨병원,병원,,"서울특별시 송파구 정의로8길 4, KDG70타워 2,3,4층 (문정동)",,,127.115708745088,37.4856990154607,"서울특별시 송파구 정의로8길 4, KDG70타워 2,3,4층 (문정동)"
PHMA220213230034021200003,염창환병원,병원,서울특별시 송파구 가락동 2-5 재정빌딩,"서울특별시 송파구 오금로 296, 재정빌딩 지하1층~지상5층 (가락동)",211005.302324733,444601.789927777,127.125376646475,37.5035032192179,"서울특별시 송파구 오금로 296, 재정빌딩 지하1층지상5층 (가락동)"
PHMA220213230034021200004,365다시재한방병원,한방병원,,"서울특별시 송파구 위례서로 248, 3층 일부, 4층 (거여동)",,,127.142262855079,37.4866427532962,"서울특별시 송파구 위례서로 248, 3층 일부, 4층 (거여동)"
PHMA220153230034021200002,잠실자생한방병원,한방병원,"서울특별시 송파구 문정동 634 가든파이브라이프 10층  L-10001~4, L-10006~8호","서울특별시 송파구 충민로 66, 가든파이브라이프 10층 L-10001~4,L-10006~8호 (문정동)",210986.460698452,441725.293491662,127.124961768886,37.4776148442516,"서울특별시 송파구 충민로 66, 가든파이브라이프 10층 L-100014,L-100068호 (문정동)"
PHMA220213230034021200001,서울세계로병원,병원,"서울특별시 송파구 거여동 604 지하1층, 5~12층","서울특별시 송파구 위례서로 248, 지하1층, 5~12층 (거여동)",,,127.142262855079,37.4866427532962,"서울특별시 송파구 위례서로 248, 지하1층, 512층 (거여동)"
PHMA220163230034021200006,강남센트럴요양병원,요양병원(일반요양병원),,"서울특별시 송파구 송이로 156, 태정타워 (가락동)",210944.860093544,443429.781369679,127.124598788292,37.4930265157005,"서울특별시 송파구 송이로 156, 태정타워 (가락동)"
PHMA220203230034021200001,서울연세요양병원,요양병원(일반요양병원),,"서울특별시 송파구 삼학사로 53, 태영빌딩 (삼전동)",,,127.096607902163,37.5019988111255,"서울특별시 송파구 삼학사로 53, 태영빌딩 (삼전동)"
PHMA220213230034021200002,다나움요양병원,요양병원(일반요양병원),서울특별시 송파구 방이동 160,"서울특별시 송파구 가락로 278, 지하1층~지상6층 (방이동)",210527.998227252,445587.289579829,127.119851822897,37.5124701632775,"서울특별시 송파구 가락로 278, 지하1층지상6층 (방이동)"
PHMA220193230034021200005,학교법인혜화학원 대전대학교서울한방병원,한방병원,,"서울특별시 송파구 법원로11길 32, 지하2~1층, 지상5~11층,13층 (문정동)",,,127.115853505576,37.4855010122778,"서울특별시 송파구 법원로11길 32, 지하21층, 지상511층,13층 (문정동)"
PHMA219993230034021201561,수치과병원,치과병원,,"서울특별시 송파구 중대로 68 (문정동, 훼밀리샤르망 505호)",210226.697751848,443267.228806217,127.116437188825,37.4915653895479,"서울특별시 송파구 중대로 68 (문정동, 훼밀리샤르망 505호)"
PHMA219983230034021201568,한솔병원,병원,서울특별시 송파구 석촌동 174번지 13호 한솔병원,"서울특별시 송파구 송파대로 445, 한솔병원 (석촌동)",209295.368139314,444879.115591176,127.105912362918,37.5060777045103,"서울특별시 송파구 송파대로 445, 한솔병원 (석촌동)"
PHMA220083230034021201553,의료법인마리아의료재단마리아병원,병원,서울특별시 송파구 가락동 121번지 2호 마리아 의료재단 새병원,"서울특별시 송파구 송이로 152, 마리아 의료재단 새병원 (가락동)",210933.669348726,443458.701668372,127.124408101115,37.4932775569006,"서울특별시 송파구 송이로 152, 마리아 의료재단 새병원 (가락동)"
PHMA220093230034021200001,강남힘찬병원,병원,서울특별시 송파구 송파1동 20번지 8호 지하2층~지상7층,"서울특별시 송파구 백제고분로 407 (송파동, 지하 2층~7층)",209641.102325061,445051.638159851,127.109884689423,37.5075933501505,"서울특별시 송파구 백제고분로 407 (송파동, 지하 2층7층)"
PHMA220133230034021200001,드림요양병원,요양병원(일반요양병원),서울특별시 송파구 가락동 57번지 B3-6층,"서울특별시 송파구 송이로 111, B3-6층 (가락동, 청석빌딩)",210736.904409143,443841.338101311,127.122141310018,37.4967487065701,"서울특별시 송파구 송이로 111, B3-6층 (가락동, 청석빌딩)"
PHMA220143230034021200001,송파미소병원,병원,서울특별시 송파구 거여동 37번지 위례빌딩,"서울특별시 송파구 오금로 513, 위례빌딩 (거여동)",212831.033281342,443457.104592042,127.145878722601,37.4932241638816,"서울특별시 송파구 오금로 513, 위례빌딩 (거여동)"
PHMA219933230034021201562,의료법인일맥의료재단 송파인애가한방병원,한방병원,서울특별시 송파구 문정동 17번지 5호 인애가한방병원,"서울특별시 송파구 문정로 65, 인애가한방병원 1,2,5,6층 (문정동)",211382.026862476,442795.708066717,127.129490585964,37.4872614776536,"서울특별시 송파구 문정로 65, 인애가한방병원 1,2,5,6층 (문정동)"
PHMA219713230034021201559,경찰병원,종합병원,,"서울특별시 송파구 송이로 123, 국립경찰병원 (가락동)",,,127.123487484921,37.4964145655333,"서울특별시 송파구 송이로 123, 국립경찰병원 (가락동)"
PHMA220143230034021200002,미래본병원,병원,,"서울특별시 송파구 송파대로 562, 2,3,8층 (신천동, 한빛프라자,삼성웰리스아파트)",208730.633457015,445905.025545443,127.099502662936,37.5153235254771,"서울특별시 송파구 송파대로 562, 2,3,8층 (신천동, 한빛프라자,삼성웰리스아파트)"
PHMA220143230034021200004,빠른병원,병원,서울특별시 송파구 송파동 20번지 7호 유니온테크송파빌딩,"서울특별시 송파구 백제고분로 405, 유니온테크송파빌딩 (송파동)",209627.926977957,445033.492693013,127.109686124752,37.5074665831574,"서울특별시 송파구 백제고분로 405, 유니온테크송파빌딩 (송파동)"
PHMA220113230034021200002,송파새희망요양병원,요양병원(일반요양병원),서울특별시 송파구 거여동 559번지 5호 삼원빌딩,"서울특별시 송파구 오금로 488, 삼원빌딩 (거여동)",212568.79253158,443483.209201758,127.142913780607,37.4934602474282,"서울특별시 송파구 오금로 488, 삼원빌딩 (거여동)"
PHMA220173230034021200003,서재곤링커병원,병원,"서울특별시 송파구 송파동 135번지 3호 4,14,15","서울특별시 송파구 백제고분로 436 (송파동, 서재곤링커병원)",209831.135259298,445251.270608881,127.11209162338,37.5094801421052,"서울특별시 송파구 백제고분로 436 (송파동, 서재곤링커병원)"
PHMA220143230034021200005,케이치과병원,치과병원,,"서울특별시 송파구 올림픽로 319, 2층 (신천동, 서울시교통회관건물)",209243.169349927,445935.092530909,127.105600888814,37.5156313294847,"서울특별시 송파구 올림픽로 319, 2층 (신천동, 서울시교통회관건물)"
PHMA220123230034021200001,올림픽병원,병원,서울특별시 송파구 석촌동 14번지 10호 어깨동무빌딩,"서울특별시 송파구 백제고분로 283, 어깨동무빌딩 (석촌동)",208596.024749829,444510.670896851,127.097999017192,37.5027492839918,"서울특별시 송파구 백제고분로 283, 어깨동무빌딩 (석촌동)"
PHMA220143230034021200003,더사랑요양병원,요양병원(일반요양병원),서울특별시 송파구 마천동 26번지 11호 보은빌딩,"서울특별시 송파구 마천로 227, 보은빌딩 (마천동)",212587.48325656,444278.471040207,127.143198688363,37.5005392855842,"서울특별시 송파구 마천로 227, 보은빌딩 (마천동)"
PHMA220143240033021200006,연세미래엔미소치과병원,치과병원,서울특별시 강동구 상일동 501번지,"서울특별시 강동구 상일로10길 36, 2층 202,203호 (상일동, 세종텔레콤지식산업센터)",215314.746342111,449845.751989409,127.174104292142,37.5507989598659,"서울특별시 강동구 상일로10길 36, 2층 202,203호 (상일동, 세종텔레콤지식산업센터)"
PHMA220203240033021200003,서울숲요양병원,요양병원(일반요양병원),서울특별시 강동구 고덕동 297-1 원케어메디컬타운,"서울특별시 강동구 고덕로 295-60, 원케어메디컬타운 (고덕동)",214041.185642466,450689.564473792,127.159656611195,37.5584482996348,"서울특별시 강동구 고덕로 295-60, 원케어메디컬타운 (고덕동)"
PHMA220083090033021200004,의성한방병원,한방병원,"서울특별시 도봉구 방학동 719-3 렉시온프라자 2, 3, 4층","서울특별시 도봉구 도봉로152길 26, 렉시온프라자 2, 3, 4층 (방학동)",203922.041712071,462985.339920532,127.045274099296,37.6692305048563,"서울특별시 도봉구 도봉로152길 26, 렉시온프라자 2, 3, 4층 (방학동)"
PHMA220143240033021200001,한국보훈복지의료공단 서울요양병원,요양병원(일반요양병원),,"서울특별시 강동구 진황도로61길 53, 중앙보훈병원 (둔촌동)",,,127.147925555901,37.5284637471127,"서울특별시 강동구 진황도로61길 53, 중앙보훈병원 (둔촌동)"
PHMA220093090033021200001,의료법인 상원의료재단 강북힘찬병원,병원,서울특별시 도봉구 창동 650-46 강북힘찬병원,"서울특별시 도봉구 도봉로 446, 강북힘찬병원 (창동)",202877.044270305,460368.674382853,127.033377074805,37.6456625299969,"서울특별시 도봉구 도봉로 446, 강북힘찬병원 (창동)"
PHMA220073090033021200001,퍼스트요양병원,요양병원(일반요양병원),서울특별시 도봉구 쌍문동 509번지 1호 백운빌딩,"서울특별시 도봉구 삼양로 616, 2-5층 (쌍문동)",201177.743198866,461734.803519059,127.014055047185,37.6580212321147,"서울특별시 도봉구 삼양로 616, 2-5층 (쌍문동)"
PHMA220053090033021200002,바로선병원,병원,서울특별시 도봉구 창동 749번지 10호,"서울특별시 도봉구 도봉로 628 (창동, 바로선병원)",203650.127964614,461998.908925832,127.042113640274,37.6603418778017,"서울특별시 도봉구 도봉로 628 (창동, 바로선병원)"
PHMA220173100034021200001,의료법인 행복나눔의료재단 사랑요양병원,요양병원(일반요양병원),서울특별시 노원구 상계동 1142번지 9호,"서울특별시 노원구 동일로243길 45 (상계동, 사랑요양병원)",204558.457810284,464003.405075075,127.052600258604,37.6784494401778,"서울특별시 노원구 동일로243길 45 (상계동, 사랑요양병원)"
PHMA220223230034021200001,오쿨리한방병원,한방병원,서울특별시 송파구 오금동 24-2 데코빌딩,"서울특별시 송파구 위례성대로22길 27, 데코빌딩 지하3층~4층층 (오금동)",211457.817185708,445070.332711295,127.130371680068,37.5077808278281,"서울특별시 송파구 위례성대로22길 27, 데코빌딩 지하3층4층층 (오금동)"
PHMA220103140033021200001,목동자생한방병원,한방병원,"서울특별시 양천구 목1동 404번지 156호 대경프라자 ( 3층, 5층, 6층)","서울특별시 양천구 신목로 102, 3,5,6층 (목동, 대경프라자)",188954.524397407,446824.338404844,126.875774509668,37.5235884341471,"서울특별시 양천구 신목로 102, 3,5,6층 (목동, 대경프라자)"
PHMA220203100034021200001,그레이스힐 요양병원,요양병원(일반요양병원),,"서울특별시 노원구 노원로 461, 대감프라자빌딩 3,4,5,6층 (상계동)",,,127.06561735906,37.657441877009,"서울특별시 노원구 노원로 461, 대감프라자빌딩 3,4,5,6층 (상계동)"
PHMA220153180034021200004,서울바른병원,병원,서울특별시 영등포구 신길동 505번지 2층~7층,"서울특별시 영등포구 여의대방로 145, 2~7층 (신길동, 세인트빌딩)",192857.928262332,444236.200769671,126.919990345257,37.5002104691442,"서울특별시 영등포구 여의대방로 145, 27층 (신길동, 세인트빌딩)"
PHMA220193100034021200002,샤인치과교정과 치과병원,치과병원,서울특별시 노원구 상계동 724번지 근호빌딩,"서울특별시 노원구 노해로 488, 근호빌딩 5층 502호 (상계동)",205415.542386681,461328.596334115,127.062168567542,37.6543222923845,"서울특별시 노원구 노해로 488, 근호빌딩 5층 502호 (상계동)"
PHMA220163130033021200001,푸르메재단 넥슨어린이재활병원,요양병원(장애인의료재활시설),"서울특별시 마포구 상암동 1738번지 푸르메재단넥슨어린이재활병원, 지하1층~7층","서울특별시 마포구 월드컵북로 494, 지하1층~7층 (상암동, 푸르메재단넥슨어린이재활병원)",189380.940592805,453602.251632194,126.880520296415,37.5846474329581,"서울특별시 마포구 월드컵북로 494, 지하1층7층 (상암동, 푸르메재단넥슨어린이재활병원)"
PHMA220103100034021200001,다인치과병원,치과병원,서울특별시 노원구 상계동 292번지 1호 와우쇼핑몰 5층,"서울특별시 노원구 노해로 507, 5층 (상계동, 와우쇼핑몰)",205557.013355638,461441.687971047,127.063889081054,37.6554272387774,"서울특별시 노원구 노해로 507, 5층 (상계동, 와우쇼핑몰)"
PHMA220133100034021200001,노원자생한방병원,한방병원,"서울특별시 노원구 상계동 292번지 1호 와우쇼핑몰 7층,8층","서울특별시 노원구 노해로 507, 7,8층 (상계동, 와우쇼핑몰)",205557.013355638,461441.687971047,127.063889081054,37.6554272387774,"서울특별시 노원구 노해로 507, 7,8층 (상계동, 와우쇼핑몰)"
PHMA220083100034021200001,방병원,병원,서울특별시 노원구 공릉동 680-10,"서울특별시 노원구 동일로 989, 1~9층 (공릉동)",206552.561558601,457344.469525861,127.075033608195,37.6184022670986,"서울특별시 노원구 동일로 989, 19층 (공릉동)"
PHMA220063100034021200001,메디아이여성병원,병원,"서울특별시 노원구 상계동 373번지 71호 , 상계동 373-45 , 상계동 373-7(1층~3층)","서울특별시 노원구 노원로 448 (상계동, 메디아이여성병원)",205845.013422713,461572.838654552,127.0670480462,37.6564723367144,"서울특별시 노원구 노원로 448 (상계동, 메디아이여성병원)"
PHMA220123100034021200001,참튼튼병원,병원,"서울특별시 노원구 상계동 723번지 2층, 3층, 5층","서울특별시 노원구 노해로 502, 2층, 3층, 5층 (상계동)",205550.908407551,461343.062226682,127.063692307584,37.6544500497108,"서울특별시 노원구 노해로 502, 2층, 3층, 5층 (상계동)"
PHMA219893100034021200001,인제대학교 상계백병원,종합병원,서울특별시 노원구 상계동 761번지 1호 상계백병원,"서울특별시 노원구 동일로 1342, 상계백병원 (상계동)",205488.916466022,460701.027580932,127.063115737673,37.6485819883224,"서울특별시 노원구 동일로 1342, 상계백병원 (상계동)"
PHMA219953100034021200001,노원을지대학교병원,종합병원,,"서울특별시 노원구 한글비석로 68, 을지병원 (하계동)",,,127.06968108866,37.6361106543284,"서울특별시 노원구 한글비석로 68, 을지병원 (하계동)"
PHMA220053100034021200003,선의요양병원,요양병원(일반요양병원),서울특별시 노원구 상계동 711번지 12호 9층~11층,"서울특별시 노원구 동일로 1419, 9층~11층 (상계동)",205211.963702341,461437.853953207,127.059846120108,37.6553094384019,"서울특별시 노원구 동일로 1419, 9층11층 (상계동)"
PHMA220133100034021200002,노원솔요양병원,요양병원(일반요양병원),서울특별시 노원구 중계동 160-1 기업은행,"서울특별시 노원구 덕릉로 690, 기업은행 2,3,4,5층 (중계동)",206616.300077726,461867.94710054,127.07566552892,37.6591744841062,"서울특별시 노원구 덕릉로 690, 기업은행 2,3,4,5층 (중계동)"
PHMA220143240033021200003,참잘함한방병원,한방병원,"서울특별시 강동구 천호동 51-7 남해빌딩 2층일부, 3~5층","서울특별시 강동구 양재대로 1517, 남해빌딩 2층일부, 3~5층 (천호동)",212376.206725401,448791.071403727,127.14087262558,37.5412622469126,"서울특별시 강동구 양재대로 1517, 남해빌딩 2층일부, 35층 (천호동)"
PHMA220143180034021200003,새롬한방병원,한방병원,,"서울특별시 영등포구 도신로 41 (대림동, 코스모메디칼)",,,126.897404679281,37.5051910698892,"서울특별시 영등포구 도신로 41 (대림동, 코스모메디칼)"
PHMA220143240033021200002,더셀채원병원,병원,서울특별시 강동구 성내동 548번지 5호 채원자연통합병원빌딩,"서울특별시 강동구 성내로 66, 채원자연통합병원빌딩 (성내동)",211159.42900767,447276.508702471,127.127071180817,37.5276730709425,"서울특별시 강동구 성내로 66, 채원자연통합병원빌딩 (성내동)"
PHMA220103200033021200001,은천요양병원,요양병원(일반요양병원),"서울특별시 관악구 봉천동 937번지 15호 2,3,4,5,6층","서울특별시 관악구 은천로 51 (봉천동, 2,3,4,5,6층)",194719.981415722,442674.193730756,126.941249709289,37.4862967199076,"서울특별시 관악구 은천로 51 (봉천동, 2,3,4,5,6층)"
PHMA219953080033021200001,경희치과병원,치과병원,서울특별시 강북구 번동 418번지 1호,"서울특별시 강북구 도봉로 358 (번동, 코스타타워)",202343.387488819,459654.425206785,127.027474954377,37.6391358802369,"서울특별시 강북구 도봉로 358 (번동, 코스타타워)"
PHMA219903220033021200001,차의과학대학교 강남차병원,종합병원,서울특별시 강남구 역삼동 650-9 강남차병원,"서울특별시 강남구 논현로 566, 강남차병원(역삼동650-9, 606-4, 605외2필지(지하7층~지하1층, 지상2층~7층)) (역삼동)",202979.308817323,444965.788565979,127.034714418284,37.5070324421316,"서울특별시 강남구 논현로 566, 강남차병원(역삼동650-9, 606-4, 605외2필지(지하7층지하1층, 지상2층7층)) (역삼동)"
PHMA219743090033021200001,의료법인한전의료재단 한일병원,종합병원,서울특별시 도봉구 쌍문동 388-1 한일병원,"서울특별시 도봉구 우이천로 308, 한일병원 (쌍문동)",202466.119176743,460394.329853007,127.029058318974,37.6466848477493,"서울특별시 도봉구 우이천로 308, 한일병원 (쌍문동)"
PHMA219823080033021200001,의료법인성화의료재단  대한병원,종합병원,서울특별시 강북구 수유동 45번지 7호,"서울특별시 강북구 도봉로 301 (수유동, 대한병원)",201952.090791867,459227.557988451,127.022673311792,37.6354702517404,"서울특별시 강북구 도봉로 301 (수유동, 대한병원)"
